image_name,gpstimestamp,time_diff,ins_status,latitude,longitude,altitude,northing,easting,down,utm_zone,velocity_north,velocity_east,velocity_down,roll,pitch,yaw
1418235094376377,1418235094380671,4294,INS_ALIGNMENT_COMPLETE,51.760643,-1.261250,116.870901,5735847.027321,619997.429080,-116.870901,30U,0.004084,0.001800,-0.009924,0.053509,0.000531,4.681977
1418235094438868,1418235094440671,1803,INS_ALIGNMENT_COMPLETE,51.760643,-1.261250,116.871504,5735847.027561,619997.429187,-116.871504,30U,0.003754,0.001933,-0.009961,0.053516,0.000528,4.681971
1418235094501359,1418235094500671,-688,INS_ALIGNMENT_COMPLETE,51.760643,-1.261250,116.872121,5735847.027786,619997.429308,-116.872121,30U,0.003615,0.002185,-0.010441,0.053519,0.000524,4.681969
1418235094563850,1418235094560672,-3178,INS_ALIGNMENT_COMPLETE,51.760643,-1.261250,116.872744,5735847.028021,619997.429438,-116.872744,30U,0.004000,0.002299,-0.010220,0.053504,0.000529,4.681970
1418235094876306,1418235094880673,4367,INS_ALIGNMENT_COMPLETE,51.760643,-1.261250,116.876265,5735847.029391,619997.430062,-116.876265,30U,0.003879,0.001947,-0.011345,0.053517,0.000527,4.681976
1418235094938798,1418235094940673,1875,INS_ALIGNMENT_COMPLETE,51.760643,-1.261250,116.876948,5735847.029631,619997.430181,-116.876948,30U,0.003818,0.002253,-0.011118,0.053513,0.000531,4.681982
1418235095001289,1418235095000674,-615,INS_ALIGNMENT_COMPLETE,51.760643,-1.261250,116.877618,5735847.029862,619997.430297,-116.877618,30U,0.003906,0.001940,-0.011132,0.053499,0.000530,4.681981
1418235095063781,1418235095060674,-3107,INS_ALIGNMENT_COMPLETE,51.760643,-1.261250,116.878291,5735847.030089,619997.430404,-116.878291,30U,0.003718,0.001694,-0.011308,0.053500,0.000532,4.681984
1418235095376237,1418235095380675,4438,INS_ALIGNMENT_COMPLETE,51.760643,-1.261250,116.865121,5735847.025330,619997.429437,-116.865121,30U,0.003113,0.001806,-0.009561,0.053545,0.000479,4.681806
1418235095438729,1418235095440675,1946,INS_ALIGNMENT_COMPLETE,51.760643,-1.261250,116.865677,5735847.025522,619997.429533,-116.865677,30U,0.003300,0.001705,-0.009001,0.053537,0.000479,4.681801
1418235095501219,1418235095500676,-543,INS_ALIGNMENT_COMPLETE,51.760643,-1.261250,116.866210,5735847.025716,619997.429628,-116.866210,30U,0.003112,0.001735,-0.008793,0.053532,0.000481,4.681797
1418235095563711,1418235095560676,-3035,INS_ALIGNMENT_COMPLETE,51.760643,-1.261250,116.866749,5735847.025904,619997.429733,-116.866749,30U,0.003017,0.001681,-0.009142,0.053532,0.000483,4.681799
1418235095876165,1418235095880677,4512,INS_ALIGNMENT_COMPLETE,51.760643,-1.261250,116.869620,5735847.026838,619997.430348,-116.869620,30U,0.002296,0.002139,-0.008424,0.053537,0.000490,4.681783
1418235095938659,1418235095940678,2019,INS_ALIGNMENT_COMPLETE,51.760643,-1.261250,116.870125,5735847.026969,619997.430468,-116.870125,30U,0.002051,0.002136,-0.008645,0.053534,0.000489,4.681783
1418235096001150,1418235096000678,-472,INS_ALIGNMENT_COMPLETE,51.760643,-1.261250,116.870663,5735847.027113,619997.430601,-116.870663,30U,0.002525,0.002286,-0.008938,0.053524,0.000480,4.681786
1418235096063641,1418235096060678,-2963,INS_ALIGNMENT_COMPLETE,51.760643,-1.261250,116.871189,5735847.027282,619997.430741,-116.871189,30U,0.002891,0.002438,-0.008606,0.053519,0.000472,4.681790
1418235096376097,1418235096380679,4582,INS_ALIGNMENT_COMPLETE,51.760643,-1.261250,116.861200,5735847.024363,619997.428719,-116.861200,30U,0.001270,0.001221,-0.007388,0.053570,0.000456,4.681816
1418235096438589,1418235096440680,2091,INS_ALIGNMENT_COMPLETE,51.760643,-1.261250,116.861641,5735847.024416,619997.428793,-116.861641,30U,0.000475,0.001251,-0.007519,0.053553,0.000454,4.681809
1418235096501081,1418235096500680,-401,INS_ALIGNMENT_COMPLETE,51.760643,-1.261250,116.862098,5735847.024428,619997.428875,-116.862098,30U,-0.000116,0.001349,-0.007382,0.053546,0.000460,4.681811
1418235096563571,1418235096560680,-2891,INS_ALIGNMENT_COMPLETE,51.760643,-1.261250,116.862552,5735847.024434,619997.428962,-116.862552,30U,0.000431,0.001435,-0.007500,0.053530,0.000470,4.681817
1418235096876028,1418235096880682,4654,INS_ALIGNMENT_COMPLETE,51.760643,-1.261250,116.865120,5735847.024803,619997.429112,-116.865120,30U,0.000173,0.000043,-0.007481,0.053566,0.000458,4.681831
1418235096938519,1418235096940682,2163,INS_ALIGNMENT_COMPLETE,51.760643,-1.261250,116.865577,5735847.024810,619997.429114,-116.865577,30U,0.000189,-0.000081,-0.007727,0.053560,0.000464,4.681835
1418235097001011,1418235097000682,-329,INS_ALIGNMENT_COMPLETE,51.760643,-1.261250,116.866048,5735847.024838,619997.429114,-116.866048,30U,0.000589,0.000069,-0.007933,0.053538,0.000472,4.681834
1418235097063502,1418235097060682,-2820,INS_ALIGNMENT_COMPLETE,51.760643,-1.261250,116.866532,5735847.024875,619997.429112,-116.866532,30U,0.000660,-0.000145,-0.008292,0.053529,0.000471,4.681834
1418235097375959,1418235097380684,4725,INS_ALIGNMENT_COMPLETE,51.760643,-1.261250,116.857341,5735847.024603,619997.427812,-116.857341,30U,0.000124,0.000058,-0.007049,0.053488,0.000541,4.681927
1418235097438450,1418235097440684,2234,INS_ALIGNMENT_COMPLETE,51.760643,-1.261250,116.857773,5735847.024599,619997.427806,-116.857773,30U,-0.000329,-0.000126,-0.007243,0.053471,0.000537,4.681926
1418235097500941,1418235097500684,-257,INS_ALIGNMENT_COMPLETE,51.760643,-1.261250,116.858196,5735847.024568,619997.427795,-116.858196,30U,-0.000591,-0.000334,-0.006849,0.053479,0.000534,4.681928
1418235097563432,1418235097560685,-2747,INS_ALIGNMENT_COMPLETE,51.760643,-1.261250,116.858607,5735847.024551,619997.427766,-116.858607,30U,-0.000236,-0.000585,-0.006923,0.053487,0.000534,4.681935
1418235097875889,1418235097880605,4716,INS_ALIGNMENT_COMPLETE,51.760643,-1.261250,116.860934,5735847.024219,619997.427650,-116.860934,30U,-0.000853,0.000083,-0.007500,0.053495,0.000523,4.681927
1418235097938380,1418235097940605,2225,INS_ALIGNMENT_COMPLETE,51.760643,-1.261250,116.861395,5735847.024181,619997.427660,-116.861395,30U,-0.000502,0.000193,-0.007743,0.053488,0.000524,4.681931
1418235098000872,1418235098000605,-267,INS_ALIGNMENT_COMPLETE,51.760643,-1.261250,116.861857,5735847.024145,619997.427678,-116.861857,30U,-0.000781,0.000354,-0.007604,0.053496,0.000532,4.681932
1418235098063363,1418235098060606,-2757,INS_ALIGNMENT_COMPLETE,51.760643,-1.261250,116.862311,5735847.024106,619997.427707,-116.862311,30U,-0.000550,0.000576,-0.007305,0.053520,0.000535,4.681936
1418235098375819,1418235098380607,4788,INS_ALIGNMENT_COMPLETE,51.760643,-1.261250,116.855163,5735847.024881,619997.428195,-116.855163,30U,0.000821,0.000923,-0.005363,0.053507,0.000506,4.681831
1418235098438310,1418235098440607,2297,INS_ALIGNMENT_COMPLETE,51.760643,-1.261250,116.855479,5735847.024929,619997.428247,-116.855479,30U,0.000790,0.000904,-0.005143,0.053535,0.000504,4.681827
1418235098500800,1418235098500607,-193,INS_ALIGNMENT_COMPLETE,51.760643,-1.261250,116.855772,5735847.024984,619997.428290,-116.855772,30U,0.000793,0.000663,-0.004845,0.053548,0.000493,4.681824
1418235098563293,1418235098560607,-2686,INS_ALIGNMENT_COMPLETE,51.760643,-1.261250,116.856055,5735847.025029,619997.428320,-116.856055,30U,0.000670,0.000396,-0.004631,0.053548,0.000496,4.681825
1418235098875750,1418235098880523,4773,INS_ALIGNMENT_COMPLETE,51.760643,-1.261250,116.857486,5735847.025279,619997.428465,-116.857486,30U,0.001215,0.000199,-0.003831,0.053530,0.000494,4.681817
1418235098938240,1418235098940523,2283,INS_ALIGNMENT_COMPLETE,51.760643,-1.261250,116.857710,5735847.025352,619997.428476,-116.857710,30U,0.001003,0.000014,-0.003750,0.053533,0.000490,4.681819
1418235099000732,1418235099000523,-209,INS_ALIGNMENT_COMPLETE,51.760643,-1.261250,116.857931,5735847.025383,619997.428472,-116.857931,30U,0.000127,-0.000146,-0.003590,0.053542,0.000494,4.681821
1418235099063223,1418235099060524,-2699,INS_ALIGNMENT_COMPLETE,51.760643,-1.261250,116.858143,5735847.025372,619997.428473,-116.858143,30U,-0.000454,-0.000079,-0.003576,0.053543,0.000498,4.681820
1418235099375680,1418235099380525,4845,INS_ALIGNMENT_COMPLETE,51.760643,-1.261250,116.854549,5735847.025231,619997.428327,-116.854549,30U,-0.000796,-0.000348,-0.003123,0.053498,0.000520,4.681791
1418235099438171,1418235099440525,2354,INS_ALIGNMENT_COMPLETE,51.760643,-1.261250,116.854725,5735847.025167,619997.428286,-116.854725,30U,-0.001339,-0.000853,-0.002794,0.053510,0.000526,4.681793
1418235099500663,1418235099500525,-138,INS_ALIGNMENT_COMPLETE,51.760643,-1.261250,116.854908,5735847.025090,619997.428232,-116.854908,30U,-0.001442,-0.001050,-0.003258,0.053503,0.000525,4.681794
1418235099563154,1418235099560525,-2629,INS_ALIGNMENT_COMPLETE,51.760643,-1.261250,116.855106,5735847.025000,619997.428162,-116.855106,30U,-0.001640,-0.001476,-0.003263,0.053493,0.000522,4.681794
1418235099875610,1418235099880526,4916,INS_ALIGNMENT_COMPLETE,51.760643,-1.261250,116.856219,5735847.024414,619997.427888,-116.856219,30U,-0.001912,-0.000894,-0.003149,0.053504,0.000527,4.681808
1418235099938102,1418235099940526,2424,INS_ALIGNMENT_COMPLETE,51.760643,-1.261250,116.856414,5735847.024274,619997.427846,-116.856414,30U,-0.002523,-0.000771,-0.003342,0.053501,0.000526,4.681813
1418235100000592,1418235100000526,-66,INS_ALIGNMENT_COMPLETE,51.760643,-1.261250,116.856612,5735847.024114,619997.427813,-116.856612,30U,-0.002604,-0.000565,-0.003007,0.053506,0.000521,4.681816
1418235100063084,1418235100060526,-2558,INS_ALIGNMENT_COMPLETE,51.760643,-1.261250,116.856790,5735847.023953,619997.427771,-116.856790,30U,-0.002698,-0.000858,-0.002784,0.053492,0.000521,4.681818
1418235100375541,1418235100380527,4986,INS_ALIGNMENT_COMPLETE,51.760643,-1.261250,116.854408,5735847.026329,619997.428250,-116.854408,30U,-0.002142,-0.001157,-0.002703,0.053527,0.000508,4.681778
1418235100438030,1418235100440528,2498,INS_ALIGNMENT_COMPLETE,51.760643,-1.261250,116.854575,5735847.026192,619997.428184,-116.854575,30U,-0.002272,-0.001398,-0.002922,0.053518,0.000511,4.681776
1418235100500523,1418235100500528,5,INS_ALIGNMENT_COMPLETE,51.760643,-1.261250,116.854739,5735847.026025,619997.428097,-116.854739,30U,-0.003058,-0.001706,-0.002394,0.053518,0.000512,4.681781
1418235100563014,1418235100560528,-2486,INS_ALIGNMENT_COMPLETE,51.760643,-1.261250,116.854863,5735847.025862,619997.427996,-116.854863,30U,-0.002228,-0.001827,-0.001657,0.053508,0.000501,4.681789
1418235100625505,1418235100620528,-4977,INS_ALIGNMENT_COMPLETE,51.760643,-1.261250,116.854936,5735847.025755,619997.427889,-116.854936,30U,-0.001437,-0.001716,-0.000669,0.053505,0.000492,4.681787
1418235100937962,1418235100940529,2567,INS_ALIGNMENT_COMPLETE,51.760643,-1.261250,116.855280,5735847.024828,619997.427426,-116.855280,30U,-0.004181,-0.001872,-0.000467,0.053511,0.000502,4.681790
1418235101000454,1418235101000529,75,INS_ALIGNMENT_COMPLETE,51.760643,-1.261250,116.855297,5735847.024609,619997.427334,-116.855297,30U,-0.002907,-0.001373,-0.000204,0.053491,0.000497,4.681773
1418235101062945,1418235101060529,-2416,INS_ALIGNMENT_COMPLETE,51.760643,-1.261250,116.855306,5735847.024468,619997.427275,-116.855306,30U,-0.002007,-0.000801,-0.000202,0.053481,0.000513,4.681763
1418235101125436,1418235101120529,-4907,INS_ALIGNMENT_COMPLETE,51.760643,-1.261250,116.855332,5735847.024351,619997.427234,-116.855332,30U,-0.002010,-0.000620,-0.000592,0.053518,0.000525,4.681768
1418235101437892,1418235101440530,2638,INS_ALIGNMENT_COMPLETE,51.760643,-1.261250,116.855471,5735847.026749,619997.428594,-116.855471,30U,-0.003586,-0.001234,0.000199,0.053525,0.000495,4.681805
1418235101500384,1418235101500530,146,INS_ALIGNMENT_COMPLETE,51.760643,-1.261250,116.855443,5735847.026561,619997.428524,-116.855443,30U,-0.002453,-0.001182,0.000616,0.053523,0.000510,4.681807
1418235101562875,1418235101560531,-2344,INS_ALIGNMENT_COMPLETE,51.760643,-1.261250,116.855413,5735847.026432,619997.428453,-116.855413,30U,-0.001701,-0.001511,0.000131,0.053542,0.000509,4.681802
1418235101625366,1418235101620531,-4835,INS_ALIGNMENT_COMPLETE,51.760643,-1.261250,116.855419,5735847.026324,619997.428360,-116.855419,30U,-0.001859,-0.001776,-0.000294,0.053574,0.000500,4.681801
1418235101937823,1418235101940532,2709,INS_ALIGNMENT_COMPLETE,51.760643,-1.261250,116.855368,5735847.025341,619997.428024,-116.855368,30U,-0.003597,-0.001082,-0.000085,0.053535,0.000491,4.681802
1418235102000314,1418235102000532,218,INS_ALIGNMENT_COMPLETE,51.760643,-1.261250,116.855381,5735847.025135,619997.427957,-116.855381,30U,-0.003341,-0.001071,-0.000145,0.053545,0.000479,4.681806
1418235102062805,1418235102060532,-2273,INS_ALIGNMENT_COMPLETE,51.760643,-1.261250,116.855365,5735847.024948,619997.427900,-116.855365,30U,-0.003034,-0.001033,0.000470,0.053575,0.000478,4.681808
1418235102125297,1418235102120532,-4765,INS_ALIGNMENT_COMPLETE,51.760643,-1.261250,116.855336,5735847.024754,619997.427865,-116.855336,30U,-0.003579,-0.000310,0.000438,0.053590,0.000490,4.681800
1418235102437753,1418235102440533,2780,INS_ALIGNMENT_COMPLETE,51.760643,-1.261250,116.855247,5735847.027074,619997.428837,-116.855247,30U,-0.004371,-0.000580,-0.000215,0.053561,0.000490,4.681733
1418235102500245,1418235102500533,288,INS_ALIGNMENT_COMPLETE,51.760643,-1.261250,116.855266,5735847.026819,619997.428815,-116.855266,30U,-0.004247,-0.000472,-0.000497,0.053575,0.000497,4.681737
1418235102562736,1418235102560533,-2203,INS_ALIGNMENT_COMPLETE,51.760643,-1.261250,116.855310,5735847.026549,619997.428789,-116.855310,30U,-0.004617,-0.000562,-0.000948,0.053585,0.000500,4.681741
1418235102625227,1418235102620534,-4693,INS_ALIGNMENT_COMPLETE,51.760643,-1.261250,116.855364,5735847.026255,619997.428750,-116.855364,30U,-0.005177,-0.001082,-0.000940,0.053592,0.000496,4.681739
1418235102937684,1418235102940535,2851,INS_ALIGNMENT_COMPLETE,51.760643,-1.261250,116.855755,5735847.024421,619997.428392,-116.855755,30U,-0.005426,-0.001764,-0.001585,0.053560,0.000493,4.681743
1418235103000175,1418235103000535,360,INS_ALIGNMENT_COMPLETE,51.760643,-1.261250,116.855856,5735847.024093,619997.428289,-116.855856,30U,-0.005505,-0.001875,-0.001491,0.053565,0.000488,4.681741
1418235103062666,1418235103060535,-2131,INS_ALIGNMENT_COMPLETE,51.760643,-1.261250,116.855941,5735847.023742,619997.428164,-116.855941,30U,-0.006162,-0.002306,-0.001412,0.053577,0.000487,4.681740
1418235103125157,1418235103120535,-4622,INS_ALIGNMENT_COMPLETE,51.760643,-1.261250,116.856028,5735847.023365,619997.428028,-116.856028,30U,-0.006093,-0.002428,-0.001556,0.053582,0.000491,4.681733
1418235103437614,1418235103440536,2922,INS_ALIGNMENT_COMPLETE,51.760643,-1.261250,116.854171,5735847.027923,619997.428798,-116.854171,30U,-0.005604,-0.003291,-0.000403,0.053553,0.000544,4.681789
1418235103500104,1418235103500536,432,INS_ALIGNMENT_COMPLETE,51.760643,-1.261250,116.854191,5735847.027573,619997.428604,-116.854191,30U,-0.005969,-0.003464,-0.000208,0.053554,0.000549,4.681793
1418235103562596,1418235103560536,-2060,INS_ALIGNMENT_COMPLETE,51.760643,-1.261250,116.854206,5735847.027206,619997.428400,-116.854206,30U,-0.005954,-0.003722,-0.000372,0.053551,0.000544,4.681800
1418235103625088,1418235103620536,-4552,INS_ALIGNMENT_COMPLETE,51.760643,-1.261250,116.854226,5735847.026844,619997.428189,-116.854226,30U,-0.005870,-0.003820,-0.000337,0.053543,0.000536,4.681804
1418235103937544,1418235103940537,2993,INS_ALIGNMENT_COMPLETE,51.760643,-1.261250,116.854222,5735847.024712,619997.427056,-116.854222,30U,-0.006565,-0.003869,0.000382,0.053549,0.000541,4.681796
1418235104000035,1418235104000538,503,INS_ALIGNMENT_COMPLETE,51.760643,-1.261250,116.854203,5735847.024311,619997.426842,-116.854203,30U,-0.006566,-0.003771,0.000159,0.053553,0.000534,4.681793
1418235104062527,1418235104060538,-1989,INS_ALIGNMENT_COMPLETE,51.760643,-1.261250,116.854188,5735847.023903,619997.426630,-116.854188,30U,-0.006963,-0.003686,0.000548,0.053553,0.000532,4.681795
1418235104125018,1418235104120538,-4480,INS_ALIGNMENT_COMPLETE,51.760643,-1.261250,116.854139,5735847.023472,619997.426420,-116.854139,30U,-0.007297,-0.003658,0.000697,0.053553,0.000536,4.681796
1418235104437473,1418235104440539,3066,INS_ALIGNMENT_COMPLETE,51.760643,-1.261250,116.854057,5735847.028543,619997.429419,-116.854057,30U,-0.006314,-0.002720,0.000464,0.053561,0.000541,4.681667
1418235104499965,1418235104500539,574,INS_ALIGNMENT_COMPLETE,51.760643,-1.261250,116.854025,5735847.028158,619997.429260,-116.854025,30U,-0.006506,-0.002903,0.000833,0.053571,0.000538,4.681659
1418235104562458,1418235104560539,-1919,INS_ALIGNMENT_COMPLETE,51.760643,-1.261250,116.853979,5735847.027769,619997.429069,-116.853979,30U,-0.006378,-0.003641,0.000321,0.053568,0.000522,4.681647
1418235104624949,1418235104620539,-4410,INS_ALIGNMENT_COMPLETE,51.760643,-1.261250,116.853966,5735847.027362,619997.428872,-116.853966,30U,-0.007074,-0.003051,0.000260,0.053533,0.000513,4.681644
1418235104937405,1418235104940540,3135,INS_ALIGNMENT_COMPLETE,51.760643,-1.261250,116.853589,5735847.025054,619997.427943,-116.853589,30U,-0.007890,-0.004081,0.001091,0.053633,0.000546,4.681662
1418235104999896,1418235105000540,644,INS_ALIGNMENT_COMPLETE,51.760643,-1.261250,116.853496,5735847.024563,619997.427721,-116.853496,30U,-0.008147,-0.003543,0.001481,0.053569,0.000550,4.681677
1418235105062387,1418235105060540,-1847,INS_ALIGNMENT_COMPLETE,51.760643,-1.261250,116.853414,5735847.024073,619997.427543,-116.853414,30U,-0.008185,-0.002751,0.001362,0.053529,0.000554,4.681676
1418235105124877,1418235105120541,-4336,INS_ALIGNMENT_COMPLETE,51.760643,-1.261250,116.853351,5735847.023583,619997.427394,-116.853351,30U,-0.007712,-0.002698,0.001048,0.053557,0.000556,4.681664
1418235105437336,1418235105440542,3206,INS_ALIGNMENT_COMPLETE,51.760643,-1.261250,116.853686,5735847.030263,619997.429805,-116.853686,30U,-0.007496,-0.002798,0.000997,0.053535,0.000618,4.681637
1418235105499824,1418235105500542,718,INS_ALIGNMENT_COMPLETE,51.760643,-1.261250,116.853635,5735847.029792,619997.429655,-116.853635,30U,-0.008066,-0.002734,0.000788,0.053544,0.000632,4.681654
1418235105562316,1418235105560542,-1774,INS_ALIGNMENT_COMPLETE,51.760643,-1.261250,116.853594,5735847.029314,619997.429491,-116.853594,30U,-0.007671,-0.003019,0.000763,0.053511,0.000630,4.681659
1418235105624809,1418235105620542,-4267,INS_ALIGNMENT_COMPLETE,51.760643,-1.261250,116.853513,5735847.028866,619997.429304,-116.853513,30U,-0.007254,-0.003462,0.001570,0.053503,0.000626,4.681645
1418235105937266,1418235105940543,3277,INS_ALIGNMENT_COMPLETE,51.760643,-1.261250,116.853140,5735847.026333,619997.428174,-116.853140,30U,-0.008511,-0.004075,0.001185,0.053531,0.000621,4.681641
1418235105999757,1418235106000543,786,INS_ALIGNMENT_COMPLETE,51.760643,-1.261250,116.853071,5735847.025801,619997.427942,-116.853071,30U,-0.008965,-0.004064,0.001037,0.053521,0.000616,4.681639
1418235106062248,1418235106060543,-1705,INS_ALIGNMENT_COMPLETE,51.760643,-1.261250,116.853000,5735847.025272,619997.427713,-116.853000,30U,-0.008538,-0.004061,0.001265,0.053530,0.000614,4.681643
1418235106124740,1418235106120543,-4197,INS_ALIGNMENT_COMPLETE,51.760643,-1.261250,116.852922,5735847.024763,619997.427491,-116.852922,30U,-0.008325,-0.003809,0.001423,0.053521,0.000614,4.681650
1418235106437196,1418235106440457,3261,INS_ALIGNMENT_COMPLETE,51.760643,-1.261250,116.852946,5735847.031686,619997.430283,-116.852946,30U,-0.008350,-0.003940,0.001951,0.053521,0.000635,4.681666
1418235106499688,1418235106500457,769,INS_ALIGNMENT_COMPLETE,51.760643,-1.261250,116.852813,5735847.031184,619997.430057,-116.852813,30U,-0.008261,-0.003966,0.002268,0.053509,0.000641,4.681662
1418235106562179,1418235106560457,-1722,INS_ALIGNMENT_COMPLETE,51.760643,-1.261250,116.852681,5735847.030668,619997.429830,-116.852681,30U,-0.008736,-0.004053,0.002001,0.053485,0.000636,4.681662
1418235106624670,1418235106620457,-4213,INS_ALIGNMENT_COMPLETE,51.760643,-1.261250,116.852568,5735847.030136,619997.429595,-116.852568,30U,-0.008760,-0.004238,0.001955,0.053495,0.000635,4.681669
1418235106937126,1418235106940458,3332,INS_ALIGNMENT_COMPLETE,51.760643,-1.261250,116.852082,5735847.027149,619997.428320,-116.852082,30U,-0.010329,-0.004639,0.000808,0.053516,0.000645,4.681663
1418235106999617,1418235107000458,841,INS_ALIGNMENT_COMPLETE,51.760643,-1.261250,116.852045,5735847.026516,619997.428050,-116.852045,30U,-0.010509,-0.004991,0.000558,0.053512,0.000636,4.681660
1418235107062109,1418235107060458,-1651,INS_ALIGNMENT_COMPLETE,51.760643,-1.261250,116.852004,5735847.025885,619997.427758,-116.852004,30U,-0.010414,-0.005156,0.000764,0.053514,0.000636,4.681659
1418235107124600,1418235107120458,-4142,INS_ALIGNMENT_COMPLETE,51.760643,-1.261250,116.851944,5735847.025256,619997.427468,-116.851944,30U,-0.010175,-0.005159,0.001028,0.053507,0.000647,4.681654
1418235107437057,1418235107440459,3402,INS_ALIGNMENT_COMPLETE,51.760643,-1.261250,116.852504,5735847.032980,619997.430651,-116.852504,30U,-0.008057,-0.005514,0.001019,0.053575,0.000612,4.681602
1418235107499548,1418235107500459,911,INS_ALIGNMENT_COMPLETE,51.760643,-1.261250,116.852423,5735847.032479,619997.430337,-116.852423,30U,-0.008224,-0.005413,0.001506,0.053569,0.000611,4.681604
1418235107562039,1418235107560459,-1580,INS_ALIGNMENT_COMPLETE,51.760643,-1.261250,116.852341,5735847.031956,619997.430021,-116.852341,30U,-0.008878,-0.005556,0.001241,0.053573,0.000607,4.681607
1418235107624531,1418235107620459,-4072,INS_ALIGNMENT_COMPLETE,51.760643,-1.261250,116.852262,5735847.031413,619997.429692,-116.852262,30U,-0.008897,-0.005909,0.001333,0.053569,0.000605,4.681608
1418235107936987,1418235107940460,3473,INS_ALIGNMENT_COMPLETE,51.760643,-1.261250,116.851771,5735847.028642,619997.427783,-116.851771,30U,-0.008093,-0.006528,0.001777,0.053576,0.000618,4.681603
1418235107999478,1418235108000460,982,INS_ALIGNMENT_COMPLETE,51.760643,-1.261250,116.851657,5735847.028139,619997.427394,-116.851657,30U,-0.008272,-0.006748,0.001930,0.053583,0.000618,4.681595
1418235108061969,1418235108060460,-1509,INS_ALIGNMENT_COMPLETE,51.760643,-1.261250,116.851546,5735847.027637,619997.426997,-116.851546,30U,-0.008368,-0.006790,0.001888,0.053584,0.000617,4.681594
1418235108124461,1418235108120460,-4001,INS_ALIGNMENT_COMPLETE,51.760643,-1.261250,116.851426,5735847.027118,619997.426583,-116.851426,30U,-0.008505,-0.007365,0.002047,0.053577,0.000618,4.681598
1418235108436917,1418235108440461,3544,INS_ALIGNMENT_COMPLETE,51.760643,-1.261250,116.852021,5735847.033178,619997.430693,-116.852021,30U,-0.007409,-0.007719,0.001583,0.053557,0.000664,4.681623
1418235108499409,1418235108500461,1052,INS_ALIGNMENT_COMPLETE,51.760643,-1.261250,116.851905,5735847.032716,619997.430229,-116.851905,30U,-0.007793,-0.008211,0.002036,0.053558,0.000658,4.681627
1418235108561900,1418235108560461,-1439,INS_ALIGNMENT_COMPLETE,51.760643,-1.261250,116.851794,5735847.032239,619997.429738,-116.851794,30U,-0.007857,-0.008620,0.001668,0.053552,0.000661,4.681630
1418235108624391,1418235108620461,-3930,INS_ALIGNMENT_COMPLETE,51.760643,-1.261250,116.851701,5735847.031753,619997.429227,-116.851701,30U,-0.008094,-0.008838,0.001364,0.053546,0.000661,4.681630
1418235108936847,1418235108940462,3615,INS_ALIGNMENT_COMPLETE,51.760643,-1.261250,116.851353,5735847.029310,619997.426353,-116.851353,30U,-0.006964,-0.009472,0.001606,0.053565,0.000653,4.681626
1418235108999340,1418235109000462,1122,INS_ALIGNMENT_COMPLETE,51.760643,-1.261250,116.851246,5735847.028875,619997.425792,-116.851246,30U,-0.007083,-0.009510,0.001902,0.053567,0.000656,4.681630
1418235109061829,1418235109060462,-1367,INS_ALIGNMENT_COMPLETE,51.760643,-1.261250,116.851144,5735847.028442,619997.425229,-116.851144,30U,-0.006952,-0.009489,0.001744,0.053562,0.000659,4.681628
1418235109124322,1418235109120462,-3860,INS_ALIGNMENT_COMPLETE,51.760643,-1.261250,116.851029,5735847.028003,619997.424659,-116.851029,30U,-0.007114,-0.009960,0.001995,0.053557,0.000661,4.681623
1418235109436778,1418235109440463,3685,INS_ALIGNMENT_COMPLETE,51.760643,-1.261250,116.852527,5735847.032949,619997.431034,-116.852527,30U,-0.005836,-0.007821,0.001352,0.053600,0.000643,4.681644
1418235109499270,1418235109500463,1193,INS_ALIGNMENT_COMPLETE,51.760643,-1.261250,116.852445,5735847.032586,619997.430577,-116.852445,30U,-0.005982,-0.007747,0.001407,0.053597,0.000642,4.681641
1418235109561761,1418235109560463,-1298,INS_ALIGNMENT_COMPLETE,51.760643,-1.261250,116.852356,5735847.032221,619997.430122,-116.852356,30U,-0.005661,-0.007767,0.001352,0.053596,0.000642,4.681640
1418235109624252,1418235109620463,-3789,INS_ALIGNMENT_COMPLETE,51.760643,-1.261250,116.852263,5735847.031860,619997.429675,-116.852263,30U,-0.005962,-0.007394,0.001612,0.053596,0.000642,4.681640
1418235109936708,1418235109940464,3756,INS_ALIGNMENT_COMPLETE,51.760643,-1.261250,116.851683,5735847.029896,619997.427239,-116.851683,30U,-0.005445,-0.007904,0.001822,0.053607,0.000650,4.681642
1418235109999200,1418235110000464,1264,INS_ALIGNMENT_COMPLETE,51.760643,-1.261250,116.851569,5735847.029566,619997.426758,-116.851569,30U,-0.005288,-0.008364,0.001919,0.053601,0.000651,4.681640
1418235110061692,1418235110060464,-1228,INS_ALIGNMENT_COMPLETE,51.760643,-1.261250,116.851458,5735847.029241,619997.426268,-116.851458,30U,-0.005148,-0.008140,0.001769,0.053604,0.000653,4.681645
1418235110124182,1418235110120464,-3718,INS_ALIGNMENT_COMPLETE,51.760643,-1.261250,116.851345,5735847.028927,619997.425782,-116.851345,30U,-0.004897,-0.008363,0.002014,0.053611,0.000648,4.681647
1418235110436639,1418235110440465,3826,INS_ALIGNMENT_COMPLETE,51.760643,-1.261250,116.852097,5735847.032808,619997.430976,-116.852097,30U,-0.004299,-0.008246,0.001826,0.053597,0.000698,4.681791
1418235110499130,1418235110500465,1335,INS_ALIGNMENT_COMPLETE,51.760643,-1.261250,116.851991,5735847.032532,619997.430487,-116.851991,30U,-0.004475,-0.008261,0.001750,0.053604,0.000702,4.681788
1418235110561622,1418235110560465,-1157,INS_ALIGNMENT_COMPLETE,51.760643,-1.261250,116.851878,5735847.032242,619997.430006,-116.851878,30U,-0.004773,-0.007969,0.001979,0.053597,0.000704,4.681792
1418235110624113,1418235110620465,-3648,INS_ALIGNMENT_COMPLETE,51.760643,-1.261250,116.851754,5735847.031927,619997.429531,-116.851754,30U,-0.005396,-0.008127,0.002062,0.053598,0.000701,4.681789
1418235110936569,1418235110940466,3897,INS_ALIGNMENT_COMPLETE,51.760643,-1.261250,116.851088,5735847.030302,619997.427076,-116.851088,30U,-0.004257,-0.007483,0.002477,0.053605,0.000701,4.681791
1418235110999060,1418235111000466,1406,INS_ALIGNMENT_COMPLETE,51.760643,-1.261250,116.850949,5735847.030035,619997.426635,-116.850949,30U,-0.004132,-0.007384,0.002335,0.053610,0.000701,4.681792
1418235111061550,1418235111060466,-1084,INS_ALIGNMENT_COMPLETE,51.760643,-1.261250,116.850811,5735847.029777,619997.426192,-116.850811,30U,-0.003952,-0.007558,0.002274,0.053612,0.000700,4.681794
1418235111124043,1418235111120466,-3577,INS_ALIGNMENT_COMPLETE,51.760643,-1.261250,116.850681,5735847.029524,619997.425747,-116.850681,30U,-0.004050,-0.007743,0.002165,0.053610,0.000698,4.681789
1418235111436500,1418235111440467,3967,INS_ALIGNMENT_COMPLETE,51.760643,-1.261250,116.851879,5735847.032512,619997.430280,-116.851879,30U,-0.002602,-0.006382,0.001958,0.053589,0.000723,4.681879
1418235111498991,1418235111500467,1476,INS_ALIGNMENT_COMPLETE,51.760643,-1.261250,116.851758,5735847.032348,619997.429893,-116.851758,30U,-0.002456,-0.006623,0.002175,0.053597,0.000723,4.681882
1418235111561482,1418235111560467,-1015,INS_ALIGNMENT_COMPLETE,51.760643,-1.261250,116.851639,5735847.032185,619997.429500,-116.851639,30U,-0.002861,-0.006530,0.001875,0.053598,0.000727,4.681881
1418235111623973,1418235111620467,-3506,INS_ALIGNMENT_COMPLETE,51.760643,-1.261250,116.851528,5735847.032006,619997.429122,-116.851528,30U,-0.002691,-0.006394,0.001756,0.053604,0.000726,4.681884
1418235111936430,1418235111940468,4038,INS_ALIGNMENT_COMPLETE,51.760643,-1.261250,116.850990,5735847.031089,619997.427088,-116.850990,30U,-0.002425,-0.006405,0.001676,0.053598,0.000723,4.681891
1418235111998921,1418235112000468,1547,INS_ALIGNMENT_COMPLETE,51.760643,-1.261250,116.850894,5735847.030940,619997.426696,-116.850894,30U,-0.002649,-0.006651,0.001613,0.053595,0.000724,4.681892
1418235112061413,1418235112060468,-945,INS_ALIGNMENT_COMPLETE,51.760643,-1.261250,116.850810,5735847.030761,619997.426311,-116.850810,30U,-0.002983,-0.006413,0.001337,0.053597,0.000720,4.681891
1418235112123904,1418235112120468,-3436,INS_ALIGNMENT_COMPLETE,51.760643,-1.261250,116.850735,5735847.030575,619997.425930,-116.850735,30U,-0.002834,-0.006247,0.001336,0.053600,0.000722,4.681890
1418235112436360,1418235112440469,4109,INS_ALIGNMENT_COMPLETE,51.760643,-1.261250,116.851891,5735847.032310,619997.430249,-116.851891,30U,-0.002382,-0.004578,0.001588,0.053619,0.000721,4.682030
1418235112498852,1418235112500469,1617,INS_ALIGNMENT_COMPLETE,51.760643,-1.261250,116.851797,5735847.032160,619997.429979,-116.851797,30U,-0.002478,-0.004633,0.001536,0.053623,0.000721,4.682026
1418235112561343,1418235112560469,-874,INS_ALIGNMENT_COMPLETE,51.760643,-1.261250,116.851712,5735847.032007,619997.429683,-116.851712,30U,-0.002464,-0.005127,0.001456,0.053612,0.000716,4.682023
1418235112623834,1418235112620469,-3365,INS_ALIGNMENT_COMPLETE,51.760643,-1.261250,116.851625,5735847.031846,619997.429382,-116.851625,30U,-0.002624,-0.005044,0.001519,0.053607,0.000717,4.682025
1418235112936291,1418235112940470,4179,INS_ALIGNMENT_COMPLETE,51.760643,-1.261250,116.851029,5735847.030865,619997.427804,-116.851029,30U,-0.003443,-0.004785,0.001948,0.053614,0.000719,4.682021
1418235112998782,1418235113000470,1688,INS_ALIGNMENT_COMPLETE,51.760643,-1.261250,116.850912,5735847.030638,619997.427529,-116.850912,30U,-0.003866,-0.004543,0.001806,0.053618,0.000717,4.682020
1418235113061274,1418235113060470,-804,INS_ALIGNMENT_COMPLETE,51.760643,-1.261250,116.850790,5735847.030396,619997.427254,-116.850790,30U,-0.003975,-0.004815,0.002253,0.053612,0.000722,4.682018
1418235113123765,1418235113120470,-3295,INS_ALIGNMENT_COMPLETE,51.760643,-1.261250,116.850656,5735847.030159,619997.426976,-116.850656,30U,-0.003850,-0.004626,0.002196,0.053607,0.000723,4.682014
1418235113436221,1418235113440471,4250,INS_ALIGNMENT_COMPLETE,51.760643,-1.261250,116.851600,5735847.032694,619997.429844,-116.851600,30U,-0.003340,-0.003815,0.002553,0.053626,0.000720,4.682042
1418235113498713,1418235113500471,1758,INS_ALIGNMENT_COMPLETE,51.760643,-1.261250,116.851454,5735847.032477,619997.429611,-116.851454,30U,-0.003700,-0.003942,0.002293,0.053617,0.000720,4.682041
1418235113561204,1418235113560471,-733,INS_ALIGNMENT_COMPLETE,51.760643,-1.261250,116.851328,5735847.032261,619997.429380,-116.851328,30U,-0.003470,-0.004016,0.002064,0.053616,0.000722,4.682043
1418235113623695,1418235113620471,-3224,INS_ALIGNMENT_COMPLETE,51.760643,-1.261250,116.851213,5735847.032057,619997.429155,-116.851213,30U,-0.003195,-0.003883,0.002007,0.053616,0.000721,4.682037
1418235113936151,1418235113940472,4321,INS_ALIGNMENT_COMPLETE,51.760643,-1.261250,116.850747,5735847.030995,619997.427964,-116.850747,30U,-0.003142,-0.004082,0.001379,0.053617,0.000731,4.682031
1418235113998643,1418235114000472,1829,INS_ALIGNMENT_COMPLETE,51.760643,-1.261250,116.850653,5735847.030799,619997.427734,-116.850653,30U,-0.003188,-0.003850,0.001733,0.053618,0.000733,4.682031
1418235114061132,1418235114060472,-660,INS_ALIGNMENT_COMPLETE,51.760643,-1.261250,116.850557,5735847.030614,619997.427505,-116.850557,30U,-0.002883,-0.004020,0.001419,0.053617,0.000734,4.682028
1418235114123625,1418235114120472,-3153,INS_ALIGNMENT_COMPLETE,51.760643,-1.261250,116.850476,5735847.030448,619997.427273,-116.850476,30U,-0.002581,-0.003906,0.001229,0.053623,0.000735,4.682028
1418235114436082,1418235114440473,4391,INS_ALIGNMENT_COMPLETE,51.760643,-1.261250,116.850964,5735847.032995,619997.429601,-116.850964,30U,-0.001797,-0.003925,0.000901,0.053593,0.000786,4.681863
1418235114498574,1418235114500473,1899,INS_ALIGNMENT_COMPLETE,51.760643,-1.261250,116.850914,5735847.032888,619997.429375,-116.850914,30U,-0.001480,-0.003779,0.000655,0.053589,0.000788,4.681866
1418235114561065,1418235114560473,-592,INS_ALIGNMENT_COMPLETE,51.760643,-1.261250,116.850869,5735847.032796,619997.429143,-116.850869,30U,-0.001245,-0.003842,0.000998,0.053590,0.000785,4.681867
1418235114623556,1418235114620473,-3083,INS_ALIGNMENT_COMPLETE,51.760643,-1.261250,116.850800,5735847.032728,619997.428913,-116.850800,30U,-0.001050,-0.003870,0.001230,0.053595,0.000782,4.681866
1418235114936012,1418235114940474,4462,INS_ALIGNMENT_COMPLETE,51.760643,-1.261250,116.850402,5735847.032419,619997.427648,-116.850402,30U,-0.000706,-0.004217,0.001115,0.053593,0.000789,4.681865
1418235114998503,1418235115000474,1971,INS_ALIGNMENT_COMPLETE,51.760643,-1.261250,116.850343,5735847.032373,619997.427400,-116.850343,30U,-0.000748,-0.004165,0.001037,0.053596,0.000788,4.681862
1418235115060995,1418235115060474,-521,INS_ALIGNMENT_COMPLETE,51.760643,-1.261250,116.850275,5735847.032332,619997.427149,-116.850275,30U,-0.000451,-0.004386,0.001434,0.053597,0.000791,4.681867
1418235115123486,1418235115120474,-3012,INS_ALIGNMENT_COMPLETE,51.760643,-1.261250,116.850181,5735847.032301,619997.426895,-116.850181,30U,-0.000315,-0.004115,0.001661,0.053596,0.000791,4.681867
1418235115435943,1418235115440475,4532,INS_ALIGNMENT_COMPLETE,51.760643,-1.261250,116.850392,5735847.033058,619997.429489,-116.850392,30U,0.000299,-0.003041,0.000836,0.053611,0.000828,4.681991
1418235115498433,1418235115500475,2042,INS_ALIGNMENT_COMPLETE,51.760643,-1.261250,116.850386,5735847.033073,619997.429308,-116.850386,30U,0.000194,-0.002951,-0.000548,0.053579,0.000821,4.681987
1418235115560925,1418235115560475,-450,INS_ALIGNMENT_COMPLETE,51.760643,-1.261250,116.850411,5735847.033069,619997.429148,-116.850411,30U,-0.000240,-0.002350,-0.000167,0.053582,0.000811,4.681992
1418235115623416,1418235115620475,-2941,INS_ALIGNMENT_COMPLETE,51.760643,-1.261250,116.850376,5735847.033051,619997.429012,-116.850376,30U,-0.000016,-0.002239,0.001176,0.053624,0.000819,4.682004
1418235115935873,1418235115940476,4603,INS_ALIGNMENT_COMPLETE,51.760643,-1.261250,116.850343,5735847.032847,619997.428204,-116.850343,30U,-0.000026,-0.002274,0.000674,0.053441,0.000818,4.681989
1418235115998364,1418235116000476,2112,INS_ALIGNMENT_COMPLETE,51.760643,-1.261250,116.850336,5735847.032870,619997.428056,-116.850336,30U,0.000636,-0.002721,-0.000618,0.053445,0.000818,4.681980
1418235116060855,1418235116060476,-379,INS_ALIGNMENT_COMPLETE,51.760643,-1.261250,116.850407,5735847.032911,619997.427880,-116.850407,30U,0.000850,-0.003025,-0.001543,0.053475,0.000803,4.681974
1418235116123346,1418235116120476,-2870,INS_ALIGNMENT_COMPLETE,51.760643,-1.261250,116.849983,5735847.032423,619997.430096,-116.849983,30U,0.000539,-0.001984,-0.000728,0.053501,0.000796,4.682093
1418235116435803,1418235116440477,4674,INS_ALIGNMENT_COMPLETE,51.760643,-1.261250,116.850233,5735847.032228,619997.429463,-116.850233,30U,-0.001008,-0.002208,-0.001264,0.053490,0.000808,4.682099
1418235116498295,1418235116500477,2182,INS_ALIGNMENT_COMPLETE,51.760643,-1.261250,116.850288,5735847.032200,619997.429332,-116.850288,30U,0.000095,-0.002191,-0.000699,0.053485,0.000803,4.682095
1418235116560786,1418235116560477,-309,INS_ALIGNMENT_COMPLETE,51.760643,-1.261250,116.850333,5735847.032202,619997.429204,-116.850333,30U,0.000004,-0.002045,-0.000967,0.053493,0.000805,4.682091
1418235116623278,1418235116620478,-2800,INS_ALIGNMENT_COMPLETE,51.760643,-1.261250,116.850406,5735847.032172,619997.429077,-116.850406,30U,-0.000828,-0.002107,-0.001389,0.053518,0.000811,4.682094
1418235116935734,1418235116940478,4744,INS_ALIGNMENT_COMPLETE,51.760643,-1.261250,116.850959,5735847.031933,619997.428365,-116.850959,30U,-0.000402,-0.002070,-0.001671,0.053492,0.000812,4.682097
1418235116998225,1418235117000478,2253,INS_ALIGNMENT_COMPLETE,51.760643,-1.261250,116.851064,5735847.031913,619997.428232,-116.851064,30U,-0.000073,-0.002319,-0.001893,0.053506,0.000810,4.682106
1418235117060716,1418235117060478,-238,INS_ALIGNMENT_COMPLETE,51.760643,-1.261250,116.851163,5735847.031919,619997.428087,-116.851163,30U,0.000258,-0.002470,-0.001459,0.053516,0.000808,4.682107
1418235117123208,1418235117120479,-2729,INS_ALIGNMENT_COMPLETE,51.760643,-1.261250,116.851247,5735847.031928,619997.427945,-116.851247,30U,0.000137,-0.002180,-0.001449,0.053518,0.000808,4.682096
1418235117435676,1418235117440479,4803,INS_ALIGNMENT_COMPLETE,51.760643,-1.261250,116.850652,5735847.031974,619997.429483,-116.850652,30U,0.000888,-0.001274,-0.001635,0.053537,0.000783,4.682057
1418235117498155,1418235117500479,2324,INS_ALIGNMENT_COMPLETE,51.760643,-1.261250,116.850750,5735847.032032,619997.429420,-116.850750,30U,0.001329,-0.000794,-0.001732,0.053542,0.000786,4.682062
1418235117560646,1418235117560479,-167,INS_ALIGNMENT_COMPLETE,51.760643,-1.261250,116.850865,5735847.032113,619997.429377,-116.850865,30U,0.001298,-0.000511,-0.002235,0.053552,0.000790,4.682061
1418235117623137,1418235117620480,-2657,INS_ALIGNMENT_COMPLETE,51.760643,-1.261250,116.851002,5735847.032189,619997.429348,-116.851002,30U,0.001342,-0.000479,-0.002135,0.053551,0.000790,4.682060
1418235117935594,1418235117940480,4886,INS_ALIGNMENT_COMPLETE,51.760643,-1.261250,116.851823,5735847.032720,619997.429293,-116.851823,30U,0.001695,0.000564,-0.002747,0.053541,0.000795,4.682071
1418235117998086,1418235118000480,2394,INS_ALIGNMENT_COMPLETE,51.760643,-1.261250,116.851983,5735847.032817,619997.429322,-116.851983,30U,0.001469,0.000409,-0.002587,0.053541,0.000800,4.682075
1418235118060577,1418235118060481,-96,INS_ALIGNMENT_COMPLETE,51.760643,-1.261250,116.852131,5735847.032908,619997.429345,-116.852131,30U,0.001642,0.000468,-0.002541,0.053538,0.000800,4.682075
1418235118123068,1418235118120481,-2587,INS_ALIGNMENT_COMPLETE,51.760643,-1.261250,116.852289,5735847.033025,619997.429361,-116.852289,30U,0.001937,0.000217,-0.002775,0.053540,0.000800,4.682073
1418235118435525,1418235118440481,4956,INS_ALIGNMENT_COMPLETE,51.760643,-1.261250,116.850198,5735847.032503,619997.428951,-116.850198,30U,0.002084,-0.000021,-0.001841,0.053497,0.000853,4.682165
1418235118498016,1418235118500481,2465,INS_ALIGNMENT_COMPLETE,51.760643,-1.261250,116.850308,5735847.032629,619997.428936,-116.850308,30U,0.002360,-0.000285,-0.001771,0.053504,0.000849,4.682166
1418235118560507,1418235118560482,-25,INS_ALIGNMENT_COMPLETE,51.760643,-1.261250,116.850415,5735847.032783,619997.428921,-116.850415,30U,0.002787,-0.000146,-0.001839,0.053499,0.000850,4.682168
1418235118622999,1418235118620482,-2517,INS_ALIGNMENT_COMPLETE,51.760643,-1.261250,116.850521,5735847.032943,619997.428905,-116.850521,30U,0.002403,-0.000118,-0.001833,0.053493,0.000856,4.682171
1418235118997947,1418235119000482,2535,INS_ALIGNMENT_COMPLETE,51.760643,-1.261250,116.851493,5735847.033886,619997.428811,-116.851493,30U,0.002024,0.000113,-0.002642,0.053492,0.000855,4.682165
1418235119060436,1418235119060483,47,INS_ALIGNMENT_COMPLETE,51.760643,-1.261250,116.851667,5735847.033999,619997.428806,-116.851667,30U,0.002098,0.000006,-0.003167,0.053498,0.000854,4.682158
1418235119122928,1418235119120483,-2445,INS_ALIGNMENT_COMPLETE,51.760643,-1.261250,116.851880,5735847.034124,619997.428796,-116.851880,30U,0.001984,-0.000426,-0.003733,0.053495,0.000849,4.682158
1418235119185420,1418235119180483,-4937,INS_ALIGNMENT_COMPLETE,51.760643,-1.261250,116.849720,5735847.032490,619997.428661,-116.849720,30U,0.002068,-0.000736,-0.002676,0.053478,0.000863,4.682251
1418235119497877,1418235119500483,2606,INS_ALIGNMENT_COMPLETE,51.760643,-1.261250,116.850309,5735847.033241,619997.428473,-116.850309,30U,0.002712,-0.000561,-0.001966,0.053473,0.000872,4.682129
1418235119560368,1418235119560484,116,INS_ALIGNMENT_COMPLETE,51.760643,-1.261250,116.850430,5735847.033409,619997.428436,-116.850430,30U,0.002718,-0.000687,-0.002266,0.053467,0.000870,4.682129
1418235119622860,1418235119620484,-2376,INS_ALIGNMENT_COMPLETE,51.760643,-1.261250,116.850560,5735847.033566,619997.428388,-116.850560,30U,0.002695,-0.000689,-0.002143,0.053465,0.000871,4.682131
1418235119685351,1418235119680484,-4867,INS_ALIGNMENT_COMPLETE,51.760643,-1.261250,116.850706,5735847.033728,619997.428351,-116.850706,30U,0.002843,-0.000366,-0.002705,0.053470,0.000874,4.682132
1418235119997807,1418235120000485,2678,INS_ALIGNMENT_COMPLETE,51.760643,-1.261250,116.851584,5735847.034790,619997.428374,-116.851584,30U,0.003269,0.000480,-0.002764,0.053462,0.000870,4.682129
1418235120060299,1418235120060485,186,INS_ALIGNMENT_COMPLETE,51.760643,-1.261250,116.851756,5735847.034987,619997.428395,-116.851756,30U,0.003358,0.000330,-0.002751,0.053476,0.000868,4.682130
1418235120122790,1418235120120485,-2305,INS_ALIGNMENT_COMPLETE,51.760643,-1.261250,116.851921,5735847.035197,619997.428421,-116.851921,30U,0.003676,0.000675,-0.002809,0.053467,0.000868,4.682128
1418235120185281,1418235120180485,-4796,INS_ALIGNMENT_COMPLETE,51.760643,-1.261250,116.850097,5735847.032400,619997.428151,-116.850097,30U,0.003270,0.001101,-0.002081,0.053476,0.000841,4.682171
1418235120497738,1418235120500486,2748,INS_ALIGNMENT_COMPLETE,51.760643,-1.261250,116.850684,5735847.033394,619997.428561,-116.850684,30U,0.002869,0.001703,-0.001054,0.053488,0.000827,4.682167
1418235120560229,1418235120560486,257,INS_ALIGNMENT_COMPLETE,51.760643,-1.261250,116.850737,5735847.033572,619997.428659,-116.850737,30U,0.002958,0.001666,-0.000782,0.053484,0.000828,4.682176
1418235120622720,1418235120620486,-2234,INS_ALIGNMENT_COMPLETE,51.760643,-1.261250,116.850777,5735847.033763,619997.428756,-116.850777,30U,0.003312,0.001784,-0.000534,0.053486,0.000825,4.682174
1418235120685212,1418235120680486,-4726,INS_ALIGNMENT_COMPLETE,51.760643,-1.261250,116.850800,5735847.033967,619997.428859,-116.850800,30U,0.003507,0.001979,-0.000367,0.053483,0.000823,4.682170
1418235120997668,1418235121000487,2819,INS_ALIGNMENT_COMPLETE,51.760643,-1.261250,116.850718,5735847.035139,619997.429609,-116.850718,30U,0.003383,0.002229,0.000664,0.053491,0.000817,4.682171
1418235121060160,1418235121060487,327,INS_ALIGNMENT_COMPLETE,51.760643,-1.261250,116.850667,5735847.035334,619997.429740,-116.850667,30U,0.002943,0.002388,0.000891,0.053490,0.000815,4.682170
1418235121122650,1418235121120487,-2163,INS_ALIGNMENT_COMPLETE,51.760643,-1.261250,116.850603,5735847.035525,619997.429889,-116.850603,30U,0.003109,0.002728,0.001251,0.053485,0.000816,4.682171
1418235121185142,1418235121180487,-4655,INS_ALIGNMENT_COMPLETE,51.760643,-1.261250,116.843558,5735847.022171,619997.431517,-116.843558,30U,0.002955,0.003042,0.001197,0.053484,0.000817,4.682198
1418235121497598,1418235121500488,2890,INS_ALIGNMENT_COMPLETE,51.760643,-1.261250,116.843311,5735847.023107,619997.432567,-116.843311,30U,0.002779,0.003107,0.000879,0.053488,0.000822,4.682191
1418235121560090,1418235121560488,398,INS_ALIGNMENT_COMPLETE,51.760643,-1.261250,116.843264,5735847.023285,619997.432755,-116.843264,30U,0.003061,0.003294,0.000819,0.053485,0.000823,4.682186
1418235121622581,1418235121620488,-2093,INS_ALIGNMENT_COMPLETE,51.760643,-1.261250,116.843198,5735847.023469,619997.432930,-116.843198,30U,0.003058,0.002902,0.001262,0.053483,0.000823,4.682177
1418235121685073,1418235121680488,-4585,INS_ALIGNMENT_COMPLETE,51.760643,-1.261250,116.843120,5735847.023651,619997.433090,-116.843120,30U,0.002815,0.002393,0.001291,0.053480,0.000824,4.682176
1418235121997528,1418235122000489,2961,INS_ALIGNMENT_COMPLETE,51.760643,-1.261250,116.842809,5735847.024546,619997.433709,-116.842809,30U,0.002986,0.001603,0.001120,0.053487,0.000820,4.682166
1418235122060021,1418235122060489,468,INS_ALIGNMENT_COMPLETE,51.760643,-1.261250,116.842740,5735847.024729,619997.433796,-116.842740,30U,0.003138,0.001647,0.001316,0.053486,0.000817,4.682166
1418235122122511,1418235122120489,-2022,INS_ALIGNMENT_COMPLETE,51.760643,-1.261250,116.842658,5735847.024923,619997.433892,-116.842658,30U,0.003198,0.001746,0.001523,0.053492,0.000816,4.682166
1418235122185003,1418235122180489,-4514,INS_ALIGNMENT_COMPLETE,51.760643,-1.261250,116.843550,5735847.022312,619997.432562,-116.843550,30U,0.002529,0.001245,0.001805,0.053487,0.000824,4.682257
1418235122497459,1418235122500490,3031,INS_ALIGNMENT_COMPLETE,51.760643,-1.261250,116.842927,5735847.023115,619997.432805,-116.842927,30U,0.002243,0.000512,0.002507,0.053476,0.000828,4.682260
1418235122559950,1418235122560490,540,INS_ALIGNMENT_COMPLETE,51.760643,-1.261250,116.842785,5735847.023249,619997.432818,-116.842785,30U,0.002373,0.000131,0.002328,0.053475,0.000829,4.682261
1418235122622442,1418235122620490,-1952,INS_ALIGNMENT_COMPLETE,51.760643,-1.261250,116.842640,5735847.023405,619997.432828,-116.842640,30U,0.002886,0.000225,0.002525,0.053478,0.000823,4.682260
1418235122684933,1418235122680490,-4443,INS_ALIGNMENT_COMPLETE,51.760643,-1.261250,116.842483,5735847.023590,619997.432846,-116.842483,30U,0.003316,0.000318,0.002695,0.053477,0.000817,4.682255
1418235122997389,1418235123000491,3102,INS_ALIGNMENT_COMPLETE,51.760643,-1.261250,116.841695,5735847.024676,619997.433097,-116.841695,30U,0.004069,0.000721,0.002026,0.053484,0.000817,4.682240
1418235123059881,1418235123060491,610,INS_ALIGNMENT_COMPLETE,51.760643,-1.261250,116.841591,5735847.024930,619997.433142,-116.841591,30U,0.004349,0.000932,0.001535,0.053488,0.000815,4.682241
1418235123122372,1418235123120491,-1881,INS_ALIGNMENT_COMPLETE,51.760643,-1.261250,116.841496,5735847.025207,619997.433196,-116.841496,30U,0.004753,0.001064,0.001688,0.053489,0.000817,4.682240
1418235123184864,1418235123180491,-4373,INS_ALIGNMENT_COMPLETE,51.760643,-1.261250,116.843564,5735847.021609,619997.432826,-116.843564,30U,0.004243,0.001670,0.001820,0.053500,0.000808,4.682309
1418235123497320,1418235123500492,3172,INS_ALIGNMENT_COMPLETE,51.760643,-1.261250,116.843151,5735847.022917,619997.433405,-116.843151,30U,0.003711,0.001736,0.001559,0.053516,0.000784,4.682303
1418235123559811,1418235123560492,681,INS_ALIGNMENT_COMPLETE,51.760643,-1.261250,116.843032,5735847.023145,619997.433528,-116.843032,30U,0.003906,0.002455,0.002271,0.053515,0.000790,4.682307
1418235123622303,1418235123620492,-1811,INS_ALIGNMENT_COMPLETE,51.760643,-1.261250,116.842906,5735847.023381,619997.433670,-116.842906,30U,0.003875,0.002509,0.002048,0.053513,0.000795,4.682312
1418235123684794,1418235123680492,-4302,INS_ALIGNMENT_COMPLETE,51.760643,-1.261250,116.842792,5735847.023611,619997.433811,-116.842792,30U,0.003822,0.002449,0.001612,0.053508,0.000790,4.682310
1418235123997250,1418235124000493,3243,INS_ALIGNMENT_COMPLETE,51.760643,-1.261250,116.842249,5735847.024817,619997.434561,-116.842249,30U,0.003950,0.001998,0.001415,0.053517,0.000788,4.682314
1418235124059740,1418235124060493,753,INS_ALIGNMENT_COMPLETE,51.760643,-1.261250,116.842175,5735847.025057,619997.434679,-116.842175,30U,0.004005,0.002152,0.001233,0.053530,0.000788,4.682313
1418235124122233,1418235124120493,-1740,INS_ALIGNMENT_COMPLETE,51.760643,-1.261250,116.842091,5735847.025305,619997.434796,-116.842091,30U,0.004539,0.002080,0.001578,0.053523,0.000788,4.682319
1418235124184724,1418235124180493,-4231,INS_ALIGNMENT_COMPLETE,51.760643,-1.261250,116.843430,5735847.021843,619997.433204,-116.843430,30U,0.004000,0.001933,0.001203,0.053518,0.000776,4.682354
1418235124497181,1418235124500494,3313,INS_ALIGNMENT_COMPLETE,51.760643,-1.261250,116.843296,5735847.023282,619997.433929,-116.843296,30U,0.005033,0.001931,0.001289,0.053531,0.000765,4.682187
1418235124559671,1418235124560494,823,INS_ALIGNMENT_COMPLETE,51.760643,-1.261250,116.843218,5735847.023569,619997.434020,-116.843218,30U,0.004587,0.001398,0.001628,0.053518,0.000767,4.682184
1418235124622163,1418235124620494,-1669,INS_ALIGNMENT_COMPLETE,51.760643,-1.261250,116.843153,5735847.023849,619997.434086,-116.843153,30U,0.004631,0.001225,0.000649,0.053524,0.000770,4.682185
1418235124684655,1418235124680494,-4161,INS_ALIGNMENT_COMPLETE,51.760643,-1.261250,116.843121,5735847.024135,619997.434153,-116.843121,30U,0.004990,0.001383,0.000269,0.053527,0.000763,4.682186
1418235124997111,1418235125000495,3384,INS_ALIGNMENT_COMPLETE,51.760643,-1.261250,116.842955,5735847.025724,619997.434513,-116.842955,30U,0.004888,0.000943,0.000591,0.053514,0.000777,4.682194
1418235125059602,1418235125060495,893,INS_ALIGNMENT_COMPLETE,51.760643,-1.261250,116.842919,5735847.026025,619997.434570,-116.842919,30U,0.005373,0.001175,0.000704,0.053517,0.000778,4.682196
1418235125122094,1418235125120495,-1599,INS_ALIGNMENT_COMPLETE,51.760643,-1.261250,116.842883,5735847.026355,619997.434629,-116.842883,30U,0.005481,0.000706,0.000411,0.053509,0.000778,4.682192
1418235125184585,1418235125180495,-4090,INS_ALIGNMENT_COMPLETE,51.760643,-1.261250,116.843228,5735847.022212,619997.433735,-116.843228,30U,0.004899,0.000484,0.000254,0.053487,0.000803,4.682299
1418235125497042,1418235125500496,3454,INS_ALIGNMENT_COMPLETE,51.760643,-1.261250,116.843218,5735847.023929,619997.433810,-116.843218,30U,0.005970,0.000505,-0.000858,0.053499,0.000807,4.682315
1418235125559531,1418235125560496,965,INS_ALIGNMENT_COMPLETE,51.760643,-1.261250,116.843285,5735847.024293,619997.433837,-116.843285,30U,0.006053,0.000760,-0.001093,0.053499,0.000804,4.682319
1418235125622024,1418235125620496,-1528,INS_ALIGNMENT_COMPLETE,51.760643,-1.261250,116.843342,5735847.024669,619997.433883,-116.843342,30U,0.006230,0.001065,-0.000802,0.053500,0.000804,4.682316
1418235125684516,1418235125680496,-4020,INS_ALIGNMENT_COMPLETE,51.760643,-1.261250,116.843371,5735847.025055,619997.433932,-116.843371,30U,0.006502,0.000950,-0.000455,0.053497,0.000807,4.682309
1418235125996972,1418235126000497,3525,INS_ALIGNMENT_COMPLETE,51.760643,-1.261250,116.843580,5735847.027165,619997.434250,-116.843580,30U,0.006414,0.001012,-0.000786,0.053492,0.000805,4.682303
1418235126059461,1418235126060497,1036,INS_ALIGNMENT_COMPLETE,51.760643,-1.261250,116.843629,5735847.027549,619997.434298,-116.843629,30U,0.006231,0.001013,-0.000748,0.053497,0.000806,4.682305
1418235126121955,1418235126120497,-1458,INS_ALIGNMENT_COMPLETE,51.760643,-1.261250,116.843671,5735847.027941,619997.434350,-116.843671,30U,0.006959,0.000959,-0.000706,0.053501,0.000808,4.682302
1418235126184446,1418235126180497,-3949,INS_ALIGNMENT_COMPLETE,51.760643,-1.261250,116.843096,5735847.022399,619997.433621,-116.843096,30U,0.005743,0.000847,-0.000287,0.053487,0.000814,4.682396
1418235126496903,1418235126500498,3595,INS_ALIGNMENT_COMPLETE,51.760643,-1.261250,116.843297,5735847.024298,619997.433897,-116.843297,30U,0.005848,0.000985,-0.001238,0.053495,0.000807,4.682404
1418235126559392,1418235126560498,1106,INS_ALIGNMENT_COMPLETE,51.760643,-1.261250,116.843376,5735847.024647,619997.433939,-116.843376,30U,0.005846,0.000615,-0.001336,0.053490,0.000805,4.682403
1418235126621884,1418235126620498,-1386,INS_ALIGNMENT_COMPLETE,51.760643,-1.261250,116.843452,5735847.025003,619997.433962,-116.843452,30U,0.005803,0.000503,-0.001184,0.053491,0.000804,4.682402
1418235126684376,1418235126680498,-3878,INS_ALIGNMENT_COMPLETE,51.760643,-1.261250,116.843516,5735847.025346,619997.434001,-116.843516,30U,0.005507,0.001105,-0.000714,0.053492,0.000808,4.682400
1418235126996833,1418235127000499,3666,INS_ALIGNMENT_COMPLETE,51.760643,-1.261250,116.843760,5735847.026963,619997.434361,-116.843760,30U,0.004653,0.001502,-0.000252,0.053491,0.000806,4.682406
1418235127059324,1418235127060499,1175,INS_ALIGNMENT_COMPLETE,51.760643,-1.261250,116.843791,5735847.027245,619997.434442,-116.843791,30U,0.004760,0.001509,-0.000561,0.053490,0.000806,4.682409
1418235127121815,1418235127120499,-1316,INS_ALIGNMENT_COMPLETE,51.760643,-1.261250,116.843823,5735847.027523,619997.434532,-116.843823,30U,0.004519,0.001549,-0.000648,0.053489,0.000812,4.682409
1418235127184307,1418235127180499,-3808,INS_ALIGNMENT_COMPLETE,51.760643,-1.261250,116.843690,5735847.023470,619997.433349,-116.843690,30U,0.003837,0.001572,-0.000632,0.053491,0.000811,4.682443
1418235127496763,1418235127500500,3737,INS_ALIGNMENT_COMPLETE,51.760643,-1.261250,116.843847,5735847.024617,619997.433730,-116.843847,30U,0.003518,0.000844,-0.000245,0.053495,0.000808,4.682421
1418235127559255,1418235127560500,1245,INS_ALIGNMENT_COMPLETE,51.760643,-1.261250,116.843864,5735847.024829,619997.433769,-116.843864,30U,0.003504,0.000650,-0.000363,0.053498,0.000812,4.682418
1418235127621746,1418235127620500,-1246,INS_ALIGNMENT_COMPLETE,51.760643,-1.261250,116.843895,5735847.025044,619997.433795,-116.843895,30U,0.003558,0.000413,-0.000507,0.053498,0.000809,4.682424
1418235127684237,1418235127680500,-3737,INS_ALIGNMENT_COMPLETE,51.760643,-1.261250,116.843937,5735847.025264,619997.433818,-116.843937,30U,0.003608,0.000697,-0.000806,0.053497,0.000805,4.682428
1418235127996693,1418235128000501,3808,INS_ALIGNMENT_COMPLETE,51.760643,-1.261250,116.844151,5735847.026420,619997.434077,-116.844151,30U,0.003338,0.001083,-0.001478,0.053505,0.000809,4.682426
1418235128059185,1418235128060501,1316,INS_ALIGNMENT_COMPLETE,51.760643,-1.261250,116.844231,5735847.026620,619997.434135,-116.844231,30U,0.003142,0.000998,-0.001168,0.053501,0.000809,4.682426
1418235128121677,1418235128120501,-1176,INS_ALIGNMENT_COMPLETE,51.760643,-1.261250,116.844291,5735847.026804,619997.434184,-116.844291,30U,0.002915,0.000662,-0.000801,0.053500,0.000809,4.682430
1418235128184168,1418235128180501,-3667,INS_ALIGNMENT_COMPLETE,51.760643,-1.261250,116.842861,5735847.023923,619997.433222,-116.842861,30U,0.002435,0.000158,-0.000643,0.053493,0.000825,4.682503
1418235128496624,1418235128500502,3878,INS_ALIGNMENT_COMPLETE,51.760643,-1.261250,116.843192,5735847.024637,619997.433329,-116.843192,30U,0.002362,0.000336,-0.000821,0.053484,0.000820,4.682520
1418235128559115,1418235128560502,1387,INS_ALIGNMENT_COMPLETE,51.760643,-1.261250,116.843251,5735847.024783,619997.433347,-116.843251,30U,0.002589,0.000324,-0.000788,0.053488,0.000823,4.682518
1418235128621607,1418235128620502,-1105,INS_ALIGNMENT_COMPLETE,51.760643,-1.261250,116.843296,5735847.024938,619997.433368,-116.843296,30U,0.002530,0.000546,-0.000790,0.053484,0.000823,4.682519
1418235128684098,1418235128680502,-3596,INS_ALIGNMENT_COMPLETE,51.760643,-1.261250,116.843354,5735847.025096,619997.433392,-116.843354,30U,0.002671,0.000232,-0.000952,0.053484,0.000824,4.682522
1418235128996555,1418235129000503,3948,INS_ALIGNMENT_COMPLETE,51.760643,-1.261250,116.843739,5735847.025983,619997.433497,-116.843739,30U,0.002898,0.000604,-0.000592,0.053478,0.000825,4.682511
1418235129059046,1418235129060503,1457,INS_ALIGNMENT_COMPLETE,51.760643,-1.261250,116.843760,5735847.026150,619997.433532,-116.843760,30U,0.002651,0.000660,-0.000228,0.053484,0.000828,4.682513
1418235129121537,1418235129120503,-1034,INS_ALIGNMENT_COMPLETE,51.760643,-1.261250,116.843764,5735847.026309,619997.433580,-116.843764,30U,0.002521,0.000984,-0.000072,0.053485,0.000828,4.682513
1418235129184028,1418235129180503,-3525,INS_ALIGNMENT_COMPLETE,51.760643,-1.261250,116.843222,5735847.023800,619997.433122,-116.843222,30U,0.002537,0.001032,0.000506,0.053476,0.000830,4.682549
1418235129496485,1418235129500504,4019,INS_ALIGNMENT_COMPLETE,51.760643,-1.261250,116.843099,5735847.024584,619997.433405,-116.843099,30U,0.002296,0.000391,0.000634,0.053475,0.000832,4.682413
1418235129558977,1418235129560504,1527,INS_ALIGNMENT_COMPLETE,51.760643,-1.261250,116.843068,5735847.024718,619997.433422,-116.843068,30U,0.002110,0.000484,0.000518,0.053474,0.000832,4.682417
1418235129621467,1418235129620504,-963,INS_ALIGNMENT_COMPLETE,51.760643,-1.261250,116.843030,5735847.024854,619997.433451,-116.843030,30U,0.002468,0.000413,0.000837,0.053491,0.000834,4.682420
1418235129683959,1418235129680505,-3454,INS_ALIGNMENT_COMPLETE,51.760643,-1.261250,116.842973,5735847.025009,619997.433462,-116.842973,30U,0.002540,0.000156,0.000731,0.053498,0.000837,4.682417
1418235129996416,1418235130000505,4089,INS_ALIGNMENT_COMPLETE,51.760643,-1.261250,116.842749,5735847.025502,619997.433511,-116.842749,30U,0.002177,-0.000469,0.000386,0.053449,0.000823,4.682401
1418235130058907,1418235130060505,1598,INS_ALIGNMENT_COMPLETE,51.760643,-1.261250,116.842750,5735847.025636,619997.433471,-116.842750,30U,0.002399,-0.000687,-0.000153,0.053475,0.000811,4.682402
1418235130121398,1418235130120505,-893,INS_ALIGNMENT_COMPLETE,51.760643,-1.261250,116.842742,5735847.025787,619997.433435,-116.842742,30U,0.002743,-0.000639,0.000585,0.053489,0.000812,4.682410
1418235130183889,1418235130180506,-3383,INS_ALIGNMENT_COMPLETE,51.760643,-1.261250,116.843289,5735847.023890,619997.433981,-116.843289,30U,0.002070,-0.000623,0.000242,0.053493,0.000818,4.682401
1418235130496346,1418235130500506,4160,INS_ALIGNMENT_COMPLETE,51.760643,-1.261250,116.843261,5735847.024368,619997.433648,-116.843261,30U,0.002269,-0.001056,0.001086,0.053497,0.000805,4.682388
1418235130558837,1418235130560506,1669,INS_ALIGNMENT_COMPLETE,51.760643,-1.261250,116.843198,5735847.024522,619997.433582,-116.843198,30U,0.002795,-0.001298,0.001018,0.053485,0.000807,4.682382
1418235130621329,1418235130620506,-823,INS_ALIGNMENT_COMPLETE,51.760643,-1.261250,116.843157,5735847.024677,619997.433502,-116.843157,30U,0.002555,-0.001129,0.000311,0.053500,0.000803,4.682389
1418235130683820,1418235130680507,-3313,INS_ALIGNMENT_COMPLETE,51.760643,-1.261250,116.843133,5735847.024812,619997.433430,-116.843133,30U,0.002317,-0.001126,0.000486,0.053524,0.000797,4.682401
1418235130996276,1418235131000507,4231,INS_ALIGNMENT_COMPLETE,51.760643,-1.261250,116.842803,5735847.025588,619997.433112,-116.842803,30U,0.002632,-0.000669,0.001447,0.053488,0.000800,4.682402
1418235131058768,1418235131060507,1739,INS_ALIGNMENT_COMPLETE,51.760643,-1.261250,116.842686,5735847.025750,619997.433059,-116.842686,30U,0.002592,-0.000705,0.002142,0.053506,0.000801,4.682397
1418235131121271,1418235131120507,-764,INS_ALIGNMENT_COMPLETE,51.760643,-1.261250,116.842547,5735847.025892,619997.433024,-116.842547,30U,0.001978,-0.000455,0.002247,0.053499,0.000801,4.682392
1418235131183750,1418235131180508,-3242,INS_ALIGNMENT_COMPLETE,51.760643,-1.261250,116.843884,5735847.023540,619997.433738,-116.843884,30U,0.001202,-0.000048,0.002034,0.053497,0.000797,4.682330
1418235131496206,1418235131500508,4302,INS_ALIGNMENT_COMPLETE,51.760643,-1.261250,116.843319,5735847.024151,619997.433727,-116.843319,30U,0.001916,-0.000084,0.001950,0.053501,0.000792,4.682305
1418235131558699,1418235131560508,1809,INS_ALIGNMENT_COMPLETE,51.760643,-1.261250,116.843207,5735847.024252,619997.433712,-116.843207,30U,0.001409,-0.000287,0.001682,0.053500,0.000796,4.682306
1418235131621189,1418235131620509,-680,INS_ALIGNMENT_COMPLETE,51.760643,-1.261250,116.843111,5735847.024326,619997.433684,-116.843111,30U,0.001016,-0.000543,0.001861,0.053495,0.000795,4.682301
1418235131683680,1418235131680509,-3171,INS_ALIGNMENT_COMPLETE,51.760643,-1.261250,116.842978,5735847.024384,619997.433664,-116.842978,30U,0.001128,-0.000123,0.002461,0.053480,0.000790,4.682300
1418235131996137,1418235132000509,4372,INS_ALIGNMENT_COMPLETE,51.760643,-1.261250,116.842214,5735847.024810,619997.433612,-116.842214,30U,0.001211,-0.000460,0.002307,0.053493,0.000786,4.682302
1418235132058627,1418235132060509,1882,INS_ALIGNMENT_COMPLETE,51.760643,-1.261250,116.842071,5735847.024869,619997.433581,-116.842071,30U,0.000893,-0.000280,0.002428,0.053497,0.000786,4.682305
1418235132121120,1418235132120510,-610,INS_ALIGNMENT_COMPLETE,51.760643,-1.261250,116.841929,5735847.024930,619997.433564,-116.841929,30U,0.001148,-0.000228,0.002229,0.053488,0.000790,4.682301
1418235132183611,1418235132180510,-3101,INS_ALIGNMENT_COMPLETE,51.760643,-1.261250,116.844054,5735847.023866,619997.434091,-116.844054,30U,0.001393,0.000024,0.001571,0.053478,0.000784,4.682278
1418235132496067,1418235132500453,4386,INS_ALIGNMENT_COMPLETE,51.760643,-1.261250,116.843617,5735847.024308,619997.434015,-116.843617,30U,0.000992,-0.000431,0.000977,0.053478,0.000774,4.682272
1418235132558559,1418235132560453,1894,INS_ALIGNMENT_COMPLETE,51.760643,-1.261250,116.843551,5735847.024371,619997.434007,-116.843551,30U,0.000957,0.000070,0.001284,0.053483,0.000775,4.682283
1418235132621050,1418235132620453,-597,INS_ALIGNMENT_COMPLETE,51.760643,-1.261250,116.843456,5735847.024443,619997.434004,-116.843456,30U,0.001591,-0.000114,0.001818,0.053485,0.000788,4.682283
