image_name,gpstimestamp,time_diff,ins_status,latitude,longitude,altitude,northing,easting,down,utm_zone,velocity_north,velocity_east,velocity_down,roll,pitch,yaw
1417534257594785,1417534257594149,-636,INS_ALIGNMENT_COMPLETE,51.760564,-1.261262,111.012531,5735838.283699,619996.830979,-111.012531,30U,0.002352,-0.007813,0.001208,0.046043,0.002834,4.923172
1417534257657276,1417534257654150,-3126,INS_ALIGNMENT_COMPLETE,51.760564,-1.261262,111.012442,5735838.283816,619996.830514,-111.012442,30U,0.002067,-0.007776,0.001583,0.046041,0.002840,4.923177
1417534257969723,1417534257974152,4429,INS_ALIGNMENT_COMPLETE,51.760564,-1.261262,111.012065,5735838.284566,619996.828138,-111.012065,30U,0.002579,-0.006666,0.001143,0.046043,0.002835,4.923174
1417534258032211,1417534258034152,1941,INS_ALIGNMENT_COMPLETE,51.760564,-1.261262,111.012009,5735838.284716,619996.827724,-111.012009,30U,0.002730,-0.007093,0.000620,0.046037,0.002845,4.923171
1417534258094701,1417534258094153,-548,INS_ALIGNMENT_COMPLETE,51.760564,-1.261262,111.011981,5735838.284857,619996.827302,-111.011981,30U,0.002460,-0.007062,0.000364,0.046019,0.002854,4.923170
1417534258157190,1417534258154153,-3037,INS_ALIGNMENT_COMPLETE,51.760564,-1.261262,111.011971,5735838.284996,619996.826874,-111.011971,30U,0.002606,-0.007117,-0.000078,0.046017,0.002853,4.923173
1417534258469638,1417534258474155,4517,INS_ALIGNMENT_COMPLETE,51.760564,-1.261262,111.011452,5735838.284435,619996.828849,-111.011452,30U,0.002402,-0.005486,0.000346,0.045981,0.002899,4.929292
1417534258532128,1417534258534156,2028,INS_ALIGNMENT_COMPLETE,51.760564,-1.261262,111.011431,5735838.284560,619996.828505,-111.011431,30U,0.002081,-0.005853,0.000488,0.045980,0.002897,4.929294
1417534258594617,1417534258594156,-461,INS_ALIGNMENT_COMPLETE,51.760564,-1.261262,111.011410,5735838.284692,619996.828158,-111.011410,30U,0.002357,-0.005655,0.000501,0.045975,0.002893,4.929293
1417534258657106,1417534258654156,-2950,INS_ALIGNMENT_COMPLETE,51.760564,-1.261262,111.011391,5735838.284821,619996.827828,-111.011391,30U,0.002376,-0.005489,0.000133,0.045965,0.002891,4.929289
1417534258969556,1417534258974159,4603,INS_ALIGNMENT_COMPLETE,51.760564,-1.261262,111.011433,5735838.285473,619996.826060,-111.011433,30U,0.001674,-0.005176,-0.000573,0.045972,0.002891,4.929297
1417534259032044,1417534259034159,2115,INS_ALIGNMENT_COMPLETE,51.760564,-1.261262,111.011465,5735838.285556,619996.825757,-111.011465,30U,0.001509,-0.004873,-0.000617,0.045950,0.002899,4.929286
1417534259094534,1417534259094159,-375,INS_ALIGNMENT_COMPLETE,51.760564,-1.261262,111.011495,5735838.285646,619996.825466,-111.011495,30U,0.001768,-0.004852,-0.000084,0.045935,0.002905,4.929300
1417534259157023,1417534259154160,-2863,INS_ALIGNMENT_COMPLETE,51.760564,-1.261262,111.011503,5735838.285773,619996.825165,-111.011503,30U,0.002852,-0.005164,-0.000258,0.045939,0.002904,4.929301
1417534259469471,1417534259474162,4691,INS_ALIGNMENT_COMPLETE,51.760564,-1.261262,111.011042,5735838.285717,619996.826044,-111.011042,30U,0.002078,-0.005153,-0.000700,0.045975,0.002932,4.934281
1417534259531962,1417534259534162,2200,INS_ALIGNMENT_COMPLETE,51.760564,-1.261262,111.011060,5735838.285819,619996.825732,-111.011060,30U,0.001488,-0.005014,0.000269,0.045947,0.002912,4.934271
1417534259594451,1417534259594163,-288,INS_ALIGNMENT_COMPLETE,51.760564,-1.261262,111.011016,5735838.285886,619996.825445,-111.011016,30U,0.000974,-0.004717,0.001263,0.045936,0.002916,4.934259
1417534259656940,1417534259654163,-2777,INS_ALIGNMENT_COMPLETE,51.760564,-1.261262,111.010940,5735838.285956,619996.825153,-111.010940,30U,0.001756,-0.004989,0.000986,0.045946,0.002933,4.934262
1417534259969388,1417534259974165,4777,INS_ALIGNMENT_COMPLETE,51.760564,-1.261262,111.010856,5735838.286413,619996.823653,-111.010856,30U,-0.000347,-0.004295,-0.000520,0.046039,0.002936,4.934254
1417534260031877,1417534260034166,2289,INS_ALIGNMENT_COMPLETE,51.760564,-1.261262,111.010896,5735838.286381,619996.823367,-111.010896,30U,-0.000304,-0.005043,-0.000699,0.046022,0.002935,4.934254
1417534260094367,1417534260094166,-201,INS_ALIGNMENT_COMPLETE,51.760564,-1.261262,111.010909,5735838.286365,619996.823057,-111.010909,30U,-0.000005,-0.005244,0.000149,0.045980,0.002929,4.934253
1417534260156856,1417534260154166,-2690,INS_ALIGNMENT_COMPLETE,51.760564,-1.261262,111.010904,5735838.286349,619996.822761,-111.010904,30U,-0.000217,-0.004738,0.000117,0.045995,0.002923,4.934251
1417534260469304,1417534260474169,4865,INS_ALIGNMENT_COMPLETE,51.760564,-1.261262,111.011308,5735838.286407,619996.826987,-111.011308,30U,-0.001021,-0.004937,-0.000410,0.045980,0.002932,4.933889
1417534260531794,1417534260534169,2375,INS_ALIGNMENT_COMPLETE,51.760564,-1.261262,111.011325,5735838.286313,619996.826717,-111.011325,30U,-0.001749,-0.003976,0.000065,0.045954,0.002917,4.933885
1417534260594285,1417534260594169,-116,INS_ALIGNMENT_COMPLETE,51.760564,-1.261262,111.011271,5735838.286203,619996.826497,-111.011271,30U,-0.001374,-0.003252,0.001347,0.045952,0.002935,4.933888
1417534260656773,1417534260654170,-2603,INS_ALIGNMENT_COMPLETE,51.760564,-1.261262,111.011181,5735838.286177,619996.826316,-111.011181,30U,0.000673,-0.002970,0.001695,0.045961,0.002969,4.933889
1417534260969222,1417534260974172,4950,INS_ALIGNMENT_COMPLETE,51.760564,-1.261262,111.010749,5735838.286080,619996.825027,-111.010749,30U,-0.001269,-0.003038,0.003695,0.045892,0.002954,4.933870
1417534261031711,1417534261034172,2461,INS_ALIGNMENT_COMPLETE,51.760564,-1.261262,111.010553,5735838.286025,619996.824833,-111.010553,30U,-0.000366,-0.003581,0.002614,0.045881,0.002977,4.933874
1417534261094202,1417534261094173,-29,INS_ALIGNMENT_COMPLETE,51.760564,-1.261262,111.010451,5735838.286031,619996.824598,-111.010451,30U,0.001004,-0.004063,0.000988,0.045948,0.002973,4.933889
1417534261156692,1417534261154173,-2519,INS_ALIGNMENT_COMPLETE,51.760564,-1.261262,111.010400,5735838.286116,619996.824360,-111.010400,30U,0.001671,-0.003683,0.001279,0.046013,0.002945,4.933894
1417534261531629,1417534261534176,2547,INS_ALIGNMENT_COMPLETE,51.760564,-1.261262,111.009861,5735838.284510,619996.826106,-111.009861,30U,-0.000869,-0.004034,0.000902,0.045932,0.002986,4.932865
1417534261594118,1417534261594176,58,INS_ALIGNMENT_COMPLETE,51.760564,-1.261262,111.009788,5735838.284460,619996.825867,-111.009788,30U,-0.000493,-0.004121,0.001455,0.045960,0.003005,4.932872
1417534261656608,1417534261654177,-2431,INS_ALIGNMENT_COMPLETE,51.760564,-1.261262,111.009678,5735838.284420,619996.825595,-111.009678,30U,-0.000796,-0.004886,0.002138,0.045920,0.003015,4.932869
1417534261719099,1417534261714177,-4922,INS_ALIGNMENT_COMPLETE,51.760564,-1.261262,111.009560,5735838.284350,619996.825299,-111.009560,30U,-0.001308,-0.005139,0.001627,0.045940,0.003005,4.932868
1417534262031547,1417534262034179,2632,INS_ALIGNMENT_COMPLETE,51.760564,-1.261262,111.009004,5735838.283869,619996.823806,-111.009004,30U,-0.001155,-0.005406,0.002077,0.045965,0.003000,4.932863
1417534262094036,1417534262094179,143,INS_ALIGNMENT_COMPLETE,51.760564,-1.261262,111.008890,5735838.283779,619996.823471,-111.008890,30U,-0.001572,-0.005711,0.001728,0.045981,0.002989,4.932866
1417534262156526,1417534262154180,-2346,INS_ALIGNMENT_COMPLETE,51.760564,-1.261262,111.008806,5735838.283677,619996.823132,-111.008806,30U,-0.001623,-0.005538,0.001425,0.045969,0.002980,4.932867
1417534262219030,1417534262214180,-4850,INS_ALIGNMENT_COMPLETE,51.760564,-1.261262,111.008717,5735838.283562,619996.822828,-111.008717,30U,-0.001914,-0.004884,0.001626,0.045949,0.002985,4.932869
1417534262531478,1417534262534182,2704,INS_ALIGNMENT_COMPLETE,51.760564,-1.261262,111.011299,5735838.284627,619996.829639,-111.011299,30U,-0.001275,-0.003336,0.002373,0.045954,0.002954,4.929642
1417534262593967,1417534262594183,216,INS_ALIGNMENT_COMPLETE,51.760564,-1.261262,111.011151,5735838.284526,619996.829451,-111.011151,30U,-0.001696,-0.002936,0.002649,0.045949,0.002960,4.929643
1417534262656457,1417534262654183,-2274,INS_ALIGNMENT_COMPLETE,51.760564,-1.261262,111.011000,5735838.284428,619996.829270,-111.011000,30U,-0.001268,-0.003137,0.002337,0.045953,0.002966,4.929645
1417534262718948,1417534262714184,-4764,INS_ALIGNMENT_COMPLETE,51.760564,-1.261262,111.010864,5735838.284358,619996.829064,-111.010864,30U,-0.001079,-0.003521,0.002139,0.045944,0.002964,4.929642
1417534263031408,1417534263034186,2778,INS_ALIGNMENT_COMPLETE,51.760564,-1.261262,111.010036,5735838.283985,619996.828201,-111.010036,30U,-0.000956,-0.002018,0.002635,0.045964,0.002956,4.929636
1417534263093899,1417534263094186,287,INS_ALIGNMENT_COMPLETE,51.760564,-1.261262,111.009879,5735838.283930,619996.828072,-111.009879,30U,-0.000698,-0.002205,0.002891,0.045956,0.002951,4.929634
1417534263156389,1417534263154187,-2202,INS_ALIGNMENT_COMPLETE,51.760564,-1.261262,111.009697,5735838.283883,619996.827936,-111.009697,30U,-0.000918,-0.002162,0.003234,0.045954,0.002952,4.929632
1417534263218892,1417534263214187,-4705,INS_ALIGNMENT_COMPLETE,51.760564,-1.261262,111.009511,5735838.283818,619996.827819,-111.009511,30U,-0.001090,-0.001874,0.003186,0.045946,0.002957,4.929633
1417534263531339,1417534263534189,2850,INS_ALIGNMENT_COMPLETE,51.760564,-1.261262,111.011307,5735838.285412,619996.827313,-111.011307,30U,0.000840,-0.001367,0.004134,0.045906,0.002965,4.934910
1417534263593829,1417534263594190,361,INS_ALIGNMENT_COMPLETE,51.760564,-1.261262,111.011055,5735838.285461,619996.827224,-111.011055,30U,0.000869,-0.001586,0.004308,0.045913,0.002981,4.934915
1417534263656319,1417534263654190,-2129,INS_ALIGNMENT_COMPLETE,51.760564,-1.261262,111.010799,5735838.285490,619996.827123,-111.010799,30U,0.000575,-0.001774,0.004274,0.045917,0.002987,4.934920
1417534264031269,1417534264034192,2923,INS_ALIGNMENT_COMPLETE,51.760564,-1.261262,111.009075,5735838.285542,619996.826187,-111.009075,30U,0.000568,-0.003130,0.004534,0.045917,0.002982,4.934920
1417534264093759,1417534264094193,434,INS_ALIGNMENT_COMPLETE,51.760564,-1.261262,111.008789,5735838.285561,619996.825986,-111.008789,30U,0.000122,-0.003321,0.004836,0.045924,0.002978,4.934916
1417534264218749,1417534264214194,-4555,INS_ALIGNMENT_COMPLETE,51.760564,-1.261262,111.008196,5735838.285523,619996.825582,-111.008196,30U,-0.000410,-0.003038,0.004774,0.045918,0.002975,4.934914
1417534264531201,1417534264534196,2995,INS_ALIGNMENT_COMPLETE,51.760564,-1.261262,111.011119,5735838.285110,619996.828012,-111.011119,30U,-0.000300,-0.002554,0.004150,0.045935,0.002988,4.933386
1417534264593691,1417534264594148,457,INS_ALIGNMENT_COMPLETE,51.760564,-1.261262,111.010867,5735838.285064,619996.827859,-111.010867,30U,-0.001137,-0.002746,0.004178,0.045934,0.002995,4.933391
1417534264718681,1417534264714148,-4533,INS_ALIGNMENT_COMPLETE,51.760564,-1.261262,111.010425,5735838.284917,619996.827512,-111.010425,30U,-0.001218,-0.003488,0.003376,0.045912,0.002995,4.933386
1417534265031131,1417534265034150,3019,INS_ALIGNMENT_COMPLETE,51.760564,-1.261262,111.009264,5735838.284548,619996.826335,-111.009264,30U,-0.000965,-0.004340,0.003855,0.045937,0.002993,4.933393
1417534265156121,1417534265154151,-1970,INS_ALIGNMENT_COMPLETE,51.760564,-1.261262,111.008777,5735838.284401,619996.825806,-111.008777,30U,-0.001415,-0.004818,0.004030,0.045928,0.002993,4.933389
1417534265218611,1417534265214152,-4459,INS_ALIGNMENT_COMPLETE,51.760564,-1.261262,111.008548,5735838.284306,619996.825517,-111.008548,30U,-0.001324,-0.004782,0.003785,0.045920,0.002994,4.933391
1417534265593562,1417534265594154,592,INS_ALIGNMENT_COMPLETE,51.760564,-1.261262,111.011484,5735838.285182,619996.828875,-111.011484,30U,-0.000868,-0.003384,0.003804,0.045924,0.002998,4.932732
1417534265656052,1417534265654075,-1977,INS_ALIGNMENT_COMPLETE,51.760564,-1.261262,111.011246,5735838.285104,619996.828690,-111.011246,30U,-0.001658,-0.002966,0.004115,0.045908,0.003008,4.932729
1417534265718542,1417534265714075,-4467,INS_ALIGNMENT_COMPLETE,51.760564,-1.261262,111.010987,5735838.285017,619996.828509,-111.010987,30U,-0.000987,-0.003165,0.004275,0.045919,0.003019,4.932726
1417534266031002,1417534266034077,3075,INS_ALIGNMENT_COMPLETE,51.760564,-1.261262,111.009690,5735838.284519,619996.827393,-111.009690,30U,-0.002058,-0.003714,0.004131,0.045935,0.003009,4.932713
1417534266093492,1417534266094077,585,INS_ALIGNMENT_COMPLETE,51.760564,-1.261262,111.009446,5735838.284394,619996.827168,-111.009446,30U,-0.001855,-0.003840,0.003928,0.045926,0.003006,4.932714
1417534266155983,1417534266154078,-1905,INS_ALIGNMENT_COMPLETE,51.760564,-1.261262,111.009207,5735838.284277,619996.826939,-111.009207,30U,-0.001809,-0.003879,0.004125,0.045923,0.003003,4.932715
1417534266218473,1417534266214078,-4395,INS_ALIGNMENT_COMPLETE,51.760564,-1.261262,111.008951,5735838.284162,619996.826705,-111.008951,30U,-0.002002,-0.003806,0.004378,0.045932,0.003004,4.932719
1417534266530933,1417534266534080,3147,INS_ALIGNMENT_COMPLETE,51.760564,-1.261262,111.011110,5735838.284915,619996.829285,-111.011110,30U,-0.002630,-0.003672,0.002948,0.045914,0.003036,4.931367
1417534266593423,1417534266594080,657,INS_ALIGNMENT_COMPLETE,51.760564,-1.261262,111.010900,5735838.284761,619996.829062,-111.010900,30U,-0.002345,-0.003695,0.003762,0.045904,0.003046,4.931363
1417534266655913,1417534266654081,-1832,INS_ALIGNMENT_COMPLETE,51.760564,-1.261262,111.010686,5735838.284644,619996.828837,-111.010686,30U,-0.001376,-0.004197,0.003033,0.045948,0.003043,4.931365
1417534266718403,1417534266714081,-4322,INS_ALIGNMENT_COMPLETE,51.760564,-1.261262,111.010567,5735838.284565,619996.828574,-111.010567,30U,-0.000978,-0.004509,0.001024,0.046019,0.003005,4.931366
1417534267030863,1417534267034083,3220,INS_ALIGNMENT_COMPLETE,51.760564,-1.261262,111.009663,5735838.283369,619996.827407,-111.009663,30U,-0.003483,-0.007146,-0.000348,0.045907,0.003097,4.931379
1417534267093354,1417534267094083,729,INS_ALIGNMENT_COMPLETE,51.760564,-1.261262,111.009729,5735838.283226,619996.826999,-111.009729,30U,-0.001343,-0.006431,-0.000848,0.045854,0.002999,4.931357
1417534267155844,1417534267154083,-1761,INS_ALIGNMENT_COMPLETE,51.760564,-1.261262,111.009657,5735838.283130,619996.826687,-111.009657,30U,-0.002126,-0.003854,0.003626,0.045869,0.002941,4.931337
1417534267218348,1417534267214084,-4264,INS_ALIGNMENT_COMPLETE,51.760564,-1.261262,111.009305,5735838.282941,619996.826529,-111.009305,30U,-0.003788,-0.002177,0.007542,0.045901,0.002987,4.931355
1417534267530795,1417534267534086,3291,INS_ALIGNMENT_COMPLETE,51.760564,-1.261262,111.026163,5735838.294925,619996.822310,-111.026163,30U,-0.003707,-0.002326,0.006259,0.045938,0.002931,4.931342
1417534267593285,1417534267594086,801,INS_ALIGNMENT_COMPLETE,51.760564,-1.261262,111.025783,5735838.294708,619996.822222,-111.025783,30U,-0.003197,-0.001119,0.005742,0.046003,0.003008,4.931358
1417534267655774,1417534267654086,-1688,INS_ALIGNMENT_COMPLETE,51.760564,-1.261262,111.025483,5735838.294550,619996.822131,-111.025483,30U,-0.002358,-0.002360,0.004443,0.046068,0.003060,4.931354
1417534267718265,1417534267714087,-4178,INS_ALIGNMENT_COMPLETE,51.760564,-1.261262,111.025231,5735838.294379,619996.821936,-111.025231,30U,-0.003733,-0.004248,0.004192,0.046110,0.003051,4.931335
1417534268030725,1417534268034089,3364,INS_ALIGNMENT_COMPLETE,51.760564,-1.261262,111.023991,5735838.292414,619996.820326,-111.023991,30U,-0.002073,-0.004353,0.004255,0.045882,0.003007,4.931351
1417534268093215,1417534268094089,874,INS_ALIGNMENT_COMPLETE,51.760564,-1.261262,111.023674,5735838.292275,619996.820080,-111.023674,30U,-0.002699,-0.004103,0.005563,0.045934,0.002998,4.931346
1417534268155702,1417534268154089,-1613,INS_ALIGNMENT_COMPLETE,51.760564,-1.261262,111.023377,5735838.292049,619996.819803,-111.023377,30U,-0.004297,-0.005069,0.004005,0.046073,0.003012,4.931355
1417534268530652,1417534268534091,3439,INS_ALIGNMENT_COMPLETE,51.760564,-1.261262,111.039741,5735838.302884,619996.816486,-111.039741,30U,-0.004448,-0.005386,0.004352,0.046009,0.003027,4.931359
1417534268593142,1417534268594092,950,INS_ALIGNMENT_COMPLETE,51.760564,-1.261262,111.039507,5735838.302619,619996.816153,-111.039507,30U,-0.004331,-0.005865,0.003691,0.046049,0.003023,4.931357
1417534268718130,1417534268714092,-4038,INS_ALIGNMENT_COMPLETE,51.760564,-1.261262,111.038931,5735838.301903,619996.815487,-111.038931,30U,-0.007309,-0.005505,0.006188,0.046082,0.002987,4.931349
1417534269093075,1417534269094095,1020,INS_ALIGNMENT_COMPLETE,51.760564,-1.261262,111.036866,5735838.299306,619996.813508,-111.036866,30U,-0.006836,-0.005388,0.005180,0.046046,0.002996,4.931359
1417534269155565,1417534269154095,-1470,INS_ALIGNMENT_COMPLETE,51.760564,-1.261262,111.036544,5735838.298900,619996.813208,-111.036544,30U,-0.006546,-0.005193,0.005268,0.045985,0.002985,4.931356
1417534269218054,1417534269214095,-3959,INS_ALIGNMENT_COMPLETE,51.760564,-1.261262,111.042342,5735838.306060,619996.818587,-111.042342,30U,-0.005352,-0.005012,0.003642,0.045994,0.002996,4.930804
1417534269530512,1417534269534097,3585,INS_ALIGNMENT_COMPLETE,51.760564,-1.261262,111.040815,5735838.304344,619996.817157,-111.040815,30U,-0.006416,-0.006453,0.004397,0.045898,0.003069,4.930800
1417534269593002,1417534269594098,1096,INS_ALIGNMENT_COMPLETE,51.760564,-1.261262,111.040605,5735838.304004,619996.816757,-111.040605,30U,-0.004541,-0.006822,0.003130,0.045882,0.003021,4.930809
1417534269655492,1417534269654098,-1394,INS_ALIGNMENT_COMPLETE,51.760564,-1.261262,111.040373,5735838.303784,619996.816383,-111.040373,30U,-0.002666,-0.005590,0.004895,0.045888,0.002978,4.930785
1417534270092940,1417534270094100,1160,INS_ALIGNMENT_COMPLETE,51.760564,-1.261262,111.038160,5735838.301646,619996.814197,-111.038160,30U,-0.005828,-0.004162,0.006094,0.045892,0.002991,4.930791
1417534270155429,1417534270154101,-1328,INS_ALIGNMENT_COMPLETE,51.760564,-1.261262,111.037809,5735838.301325,619996.813944,-111.037809,30U,-0.004559,-0.004708,0.004965,0.045907,0.003016,4.930809
1417534270217919,1417534270214101,-3818,INS_ALIGNMENT_COMPLETE,51.760564,-1.261262,111.044349,5735838.307376,619996.817951,-111.044349,30U,-0.002145,-0.004852,0.001448,0.045999,0.002998,4.930409
1417534270530377,1417534270534103,3726,INS_ALIGNMENT_COMPLETE,51.760564,-1.261262,111.043284,5735838.305991,619996.816603,-111.043284,30U,-0.002985,-0.005717,0.000472,0.045911,0.003038,4.930223
1417534270592868,1417534270594103,1235,INS_ALIGNMENT_COMPLETE,51.760564,-1.261262,111.043214,5735838.305870,619996.816297,-111.043214,30U,-0.001223,-0.004442,0.002142,0.045955,0.003002,4.930197
1417534270717858,1417534270714104,-3754,INS_ALIGNMENT_COMPLETE,51.760564,-1.261262,111.042734,5735838.305609,619996.815854,-111.042734,30U,-0.003732,-0.003873,0.004346,0.046078,0.003023,4.930220
1417534271092807,1417534271094106,1299,INS_ALIGNMENT_COMPLETE,51.760564,-1.261262,111.041570,5735838.304218,619996.814159,-111.041570,30U,-0.001507,-0.003500,0.002801,0.045982,0.003029,4.930225
1417534271155295,1417534271154107,-1188,INS_ALIGNMENT_COMPLETE,51.760564,-1.261262,111.041459,5735838.304116,619996.813936,-111.041459,30U,-0.002109,-0.004265,0.001125,0.046030,0.003029,4.930205
1417534271217788,1417534271214107,-3681,INS_ALIGNMENT_COMPLETE,51.760564,-1.261262,111.044550,5735838.305598,619996.817232,-111.044550,30U,-0.003963,-0.004512,0.000878,0.046016,0.003011,4.930057
1417534271530246,1417534271534109,3863,INS_ALIGNMENT_COMPLETE,51.760564,-1.261262,111.043916,5735838.304221,619996.816025,-111.043916,30U,-0.004197,-0.003882,0.002526,0.045937,0.003027,4.930078
1417534271592732,1417534271594109,1377,INS_ALIGNMENT_COMPLETE,51.760564,-1.261262,111.043800,5735838.303967,619996.815786,-111.043800,30U,-0.003716,-0.004094,0.001263,0.046013,0.003010,4.930099
1417534271655223,1417534271654110,-1113,INS_ALIGNMENT_COMPLETE,51.760564,-1.261262,111.043750,5735838.303766,619996.815551,-111.043750,30U,-0.003118,-0.003721,0.000960,0.046015,0.002983,4.930081
1417534272092673,1417534272094112,1439,INS_ALIGNMENT_COMPLETE,51.760564,-1.261262,111.043290,5735838.301647,619996.814241,-111.043290,30U,-0.005781,-0.002323,0.000690,0.045972,0.002987,4.930072
1417534272155165,1417534272154112,-1053,INS_ALIGNMENT_COMPLETE,51.760564,-1.261262,111.043241,5735838.301271,619996.814101,-111.043241,30U,-0.006157,-0.002665,0.000340,0.046016,0.003004,4.930086
1417534272217657,1417534272214113,-3544,INS_ALIGNMENT_COMPLETE,51.760564,-1.261262,111.043224,5735838.300921,619996.813944,-111.043224,30U,-0.005427,-0.002873,0.000456,0.045985,0.003009,4.930072
1417534272530116,1417534272534115,3999,INS_ALIGNMENT_COMPLETE,51.760564,-1.261262,111.044522,5735838.307297,619996.812471,-111.044522,30U,-0.004019,-0.015088,0.005037,0.045903,0.003118,4.938170
1417534272592606,1417534272594115,1509,INS_ALIGNMENT_COMPLETE,51.760564,-1.261262,111.044138,5735838.307051,619996.811183,-111.044138,30U,-0.002438,-0.028240,0.006878,0.045762,0.003352,4.938436
1417534272655096,1417534272654115,-981,INS_ALIGNMENT_COMPLETE,51.760564,-1.261262,111.043804,5735838.306986,619996.809124,-111.043804,30U,0.002453,-0.040494,0.003841,0.045646,0.003549,4.938737
1417534272717584,1417534272714116,-3468,INS_ALIGNMENT_COMPLETE,51.760564,-1.261262,111.043656,5735838.307241,619996.806261,-111.043656,30U,0.008134,-0.055041,0.001839,0.045547,0.003661,4.939017
1417534273030044,1417534273034118,4074,INS_ALIGNMENT_COMPLETE,51.760564,-1.261262,111.043787,5735838.311107,619996.776541,-111.043787,30U,0.021990,-0.128740,-0.000019,0.045696,0.004092,4.942659
1417534273092548,1417534273094118,1570,INS_ALIGNMENT_COMPLETE,51.760564,-1.261262,111.043760,5735838.312344,619996.768421,-111.043760,30U,0.025522,-0.140845,0.000824,0.045738,0.004185,4.943566
1417534273155024,1417534273154118,-906,INS_ALIGNMENT_COMPLETE,51.760564,-1.261263,111.043741,5735838.313729,619996.759587,-111.043741,30U,0.027720,-0.152841,-0.000200,0.045765,0.004286,4.944541
1417534273529975,1417534273534120,4145,INS_ALIGNMENT_COMPLETE,51.760565,-1.261264,111.062278,5735838.344340,619996.683954,-111.062278,30U,0.046438,-0.231467,0.000606,0.046169,0.004978,4.952918
1417534273592466,1417534273594121,1655,INS_ALIGNMENT_COMPLETE,51.760565,-1.261264,111.062310,5735838.346813,619996.669628,-111.062310,30U,0.047444,-0.244279,-0.002059,0.046166,0.005178,4.954519
1417534273717455,1417534273714121,-3334,INS_ALIGNMENT_COMPLETE,51.760565,-1.261264,111.062777,5735838.352020,619996.638544,-111.062777,30U,0.053174,-0.271521,-0.004051,0.046122,0.005413,4.957994
1417534274029905,1417534274034123,4218,INS_ALIGNMENT_COMPLETE,51.760565,-1.261266,111.063918,5735838.371241,619996.540441,-111.063918,30U,0.077090,-0.339420,-0.004726,0.046207,0.006066,4.967962
1417534274154895,1417534274154124,-771,INS_ALIGNMENT_COMPLETE,51.760565,-1.261266,111.064328,5735838.379735,619996.498010,-111.064328,30U,0.081642,-0.364044,-0.002402,0.046278,0.006373,4.972199
1417534274217387,1417534274214124,-3263,INS_ALIGNMENT_COMPLETE,51.760565,-1.261267,111.064497,5735838.384220,619996.475653,-111.064497,30U,0.086404,-0.378783,-0.002070,0.046198,0.006589,4.974360
1417534274592336,1417534274594127,1791,INS_ALIGNMENT_COMPLETE,51.760572,-1.261270,112.250379,5735839.143269,619996.258051,-112.250379,30U,0.168867,-0.627356,0.003850,0.046404,0.010237,4.990322
1417534274654826,1417534274654127,-699,INS_ALIGNMENT_COMPLETE,51.760572,-1.261270,112.250188,5735839.152862,619996.218748,-112.250188,30U,0.181463,-0.674831,0.002728,0.046409,0.010680,4.993006
1417534274717316,1417534274714127,-3189,INS_ALIGNMENT_COMPLETE,51.760572,-1.261271,112.249994,5735839.163072,619996.176613,-112.249994,30U,0.192035,-0.721308,0.004778,0.046394,0.011077,4.995890
1417534275029776,1417534275034129,4353,INS_ALIGNMENT_COMPLETE,51.760573,-1.261275,112.247333,5735839.232753,619995.905357,-112.247333,30U,0.287066,-0.963343,0.007850,0.049033,0.014284,5.013168
1417534275092266,1417534275094129,1863,INS_ALIGNMENT_COMPLETE,51.760573,-1.261275,112.246949,5735839.249106,619995.845808,-112.246949,30U,0.304973,-1.008047,0.005200,0.050007,0.014722,5.016337
1417534275154757,1417534275154130,-627,INS_ALIGNMENT_COMPLETE,51.760573,-1.261276,112.246795,5735839.266417,619995.783625,-112.246795,30U,0.320551,-1.050816,-0.000044,0.050586,0.015062,5.019374
1417534275217248,1417534275214130,-3118,INS_ALIGNMENT_COMPLETE,51.760573,-1.261277,112.246938,5735839.284582,619995.718882,-112.246938,30U,0.336883,-1.092333,-0.004383,0.051357,0.015288,5.022201
1417534275529715,1417534275534132,4417,INS_ALIGNMENT_COMPLETE,51.760577,-1.261283,112.776805,5735839.640190,619995.349683,-112.776805,30U,0.410872,-1.318996,-0.004280,0.052985,0.016539,5.034583
1417534275592215,1417534275594132,1917,INS_ALIGNMENT_COMPLETE,51.760577,-1.261284,112.777335,5735839.663423,619995.268927,-112.777335,30U,0.429719,-1.352952,-0.013326,0.052410,0.016644,5.036973
1417534275654705,1417534275654133,-572,INS_ALIGNMENT_COMPLETE,51.760577,-1.261285,112.778363,5735839.687982,619995.186212,-112.778363,30U,0.454234,-1.384305,-0.019579,0.052052,0.016722,5.038920
1417534275717206,1417534275714133,-3073,INS_ALIGNMENT_COMPLETE,51.760577,-1.261286,112.779629,5735839.713822,619995.101600,-112.779629,30U,0.472909,-1.415742,-0.022021,0.051727,0.016896,5.040627
1417534276029690,1417534276034135,4445,INS_ALIGNMENT_COMPLETE,51.760579,-1.261293,112.788811,5735839.862720,619994.614843,-112.788811,30U,0.551497,-1.602779,-0.029615,0.048099,0.015858,5.053667
1417534276092182,1417534276094135,1953,INS_ALIGNMENT_COMPLETE,51.760579,-1.261295,112.790595,5735839.894020,619994.516855,-112.790595,30U,0.568838,-1.639543,-0.029816,0.047259,0.015696,5.056312
1417534276154679,1417534276154136,-543,INS_ALIGNMENT_COMPLETE,51.760579,-1.261296,112.792464,5735839.926222,619994.416509,-112.792464,30U,0.583658,-1.680232,-0.031805,0.046776,0.015624,5.059250
1417534276217179,1417534276214136,-3043,INS_ALIGNMENT_COMPLETE,51.760580,-1.261297,112.794420,5735839.959238,619994.313699,-112.794420,30U,0.599629,-1.719792,-0.032362,0.046646,0.015347,5.062628
1417534276529656,1417534276534138,4482,INS_ALIGNMENT_COMPLETE,51.760583,-1.261306,113.125261,5735840.262913,619993.748390,-113.125261,30U,0.702816,-1.905101,-0.041321,0.046006,0.012870,5.081558
1417534276592154,1417534276594138,1984,INS_ALIGNMENT_COMPLETE,51.760583,-1.261307,113.127832,5735840.302739,619993.632143,-113.127832,30U,0.717788,-1.937663,-0.044287,0.044413,0.013269,5.086042
1417534276654654,1417534276654139,-515,INS_ALIGNMENT_COMPLETE,51.760583,-1.261309,113.130548,5735840.343518,619993.514012,-113.130548,30U,0.735658,-1.967575,-0.045877,0.042475,0.013492,5.090532
1417534276717145,1417534276714139,-3006,INS_ALIGNMENT_COMPLETE,51.760584,-1.261311,113.133235,5735840.385584,619993.394006,-113.133235,30U,0.761805,-1.999677,-0.041886,0.040398,0.013421,5.094959
1417534277029612,1417534277034141,4529,INS_ALIGNMENT_COMPLETE,51.760586,-1.261320,113.138180,5735840.634912,619992.724730,-113.138180,30U,0.894530,-2.139802,-0.023047,0.032940,0.017641,5.123373
1417534277092108,1417534277094141,2033,INS_ALIGNMENT_COMPLETE,51.760587,-1.261322,113.140387,5735840.686152,619992.594256,-113.140387,30U,0.919253,-2.167814,-0.051175,0.032940,0.018503,5.129685
1417534277154608,1417534277154141,-467,INS_ALIGNMENT_COMPLETE,51.760587,-1.261324,113.143874,5735840.739061,619992.462051,-113.143874,30U,0.949517,-2.196772,-0.063207,0.032786,0.018244,5.136526
1417534277217099,1417534277214142,-2957,INS_ALIGNMENT_COMPLETE,51.760588,-1.261326,113.147776,5735840.793627,619992.328038,-113.147776,30U,0.974979,-2.227641,-0.066107,0.032059,0.017290,5.144040
1417534277529579,1417534277534144,4565,INS_ALIGNMENT_COMPLETE,51.760591,-1.261336,113.347902,5735841.190030,619991.603028,-113.347902,30U,1.182080,-2.391187,0.017198,0.032443,0.016343,5.189570
1417534277592068,1417534277594144,2076,INS_ALIGNMENT_COMPLETE,51.760592,-1.261338,113.347275,5735841.258357,619991.456950,-113.347275,30U,1.212934,-2.422287,0.001886,0.032213,0.016695,5.200074
1417534277654556,1417534277654144,-412,INS_ALIGNMENT_COMPLETE,51.760593,-1.261340,113.347950,5735841.328761,619991.309172,-113.347950,30U,1.253875,-2.446494,-0.025974,0.032151,0.016622,5.211101
1417534277717054,1417534277714145,-2909,INS_ALIGNMENT_COMPLETE,51.760593,-1.261343,113.350572,5735841.402012,619991.160071,-113.350572,30U,1.305925,-2.464418,-0.061550,0.031951,0.015805,5.222181
1417534278029502,1417534278034147,4645,INS_ALIGNMENT_COMPLETE,51.760597,-1.261354,113.376193,5735841.839282,619990.341823,-113.376193,30U,1.544745,-2.564462,-0.124374,0.020104,0.003990,5.289464
1417534278091990,1417534278094147,2157,INS_ALIGNMENT_COMPLETE,51.760598,-1.261357,113.383624,5735841.929912,619990.185239,-113.383624,30U,1.603318,-2.581924,-0.110209,0.016592,0.000889,5.304836
1417534278154483,1417534278154147,-336,INS_ALIGNMENT_COMPLETE,51.760599,-1.261359,113.388748,5735842.024611,619990.027970,-113.388748,30U,1.682411,-2.581757,-0.060535,0.015308,-0.001259,5.320359
1417534278216970,1417534278214148,-2822,INS_ALIGNMENT_COMPLETE,51.760600,-1.261361,113.390966,5735842.124487,619989.870959,-113.390966,30U,1.769991,-2.571372,-0.015637,0.014764,-0.002408,5.335850
1417534278529437,1417534278534149,4712,INS_ALIGNMENT_COMPLETE,51.760606,-1.261373,113.526839,5735842.784598,619989.049061,-113.526839,30U,2.143132,-2.584986,0.006187,0.013722,-0.005722,5.428112
1417534278591928,1417534278594150,2222,INS_ALIGNMENT_COMPLETE,51.760607,-1.261375,113.526655,5735842.911605,619988.891140,-113.526655,30U,2.213944,-2.580021,-0.002205,0.011844,-0.006176,5.445207
1417534278654416,1417534278654150,-266,INS_ALIGNMENT_COMPLETE,51.760609,-1.261377,113.526718,5735843.042624,619988.733018,-113.526718,30U,2.278990,-2.586115,0.005273,0.010542,-0.007020,5.462832
1417534278716904,1417534278714150,-2754,INS_ALIGNMENT_COMPLETE,51.760610,-1.261379,113.525510,5735843.177689,619988.574553,-113.525510,30U,2.350670,-2.585708,0.037167,0.009213,-0.007714,5.481305
1417534279029352,1417534279034152,4800,INS_ALIGNMENT_COMPLETE,51.760617,-1.261391,113.515813,5735843.979033,619987.744950,-113.515813,30U,2.764967,-2.451491,0.011952,0.004431,-0.010916,5.581668
1417534279091850,1417534279094153,2303,INS_ALIGNMENT_COMPLETE,51.760619,-1.261393,113.514730,5735844.142989,619987.594863,-113.514730,30U,2.818457,-2.422050,0.023689,0.003631,-0.011527,5.600786
1417534279154348,1417534279154153,-195,INS_ALIGNMENT_COMPLETE,51.760620,-1.261395,113.512967,5735844.310148,619987.446477,-113.512967,30U,2.870595,-2.389568,0.032567,0.002507,-0.011594,5.620427
1417534279216838,1417534279214153,-2685,INS_ALIGNMENT_COMPLETE,51.760622,-1.261397,113.511115,5735844.480569,619987.300162,-113.511115,30U,2.927202,-2.350114,0.028952,0.000733,-0.011607,5.640329
1417534279529307,1417534279534155,4848,INS_ALIGNMENT_COMPLETE,51.760631,-1.261407,113.599690,5735845.490607,619986.603788,-113.599690,30U,3.226095,-2.060590,0.047285,-0.007694,-0.012129,5.742997
1417534279591794,1417534279594156,2362,INS_ALIGNMENT_COMPLETE,51.760633,-1.261409,113.596436,5735845.682977,619986.477510,-113.596436,30U,3.286404,-1.996993,0.060403,-0.007741,-0.011255,5.760951
1417534279654284,1417534279654156,-128,INS_ALIGNMENT_COMPLETE,51.760635,-1.261411,113.592514,5735845.878939,619986.354722,-113.592514,30U,3.341424,-1.944043,0.069919,-0.007699,-0.010230,5.778362
1417534279716774,1417534279714156,-2618,INS_ALIGNMENT_COMPLETE,51.760636,-1.261412,113.588250,5735846.078131,619986.234795,-113.588250,30U,3.391520,-1.896377,0.069579,-0.007226,-0.009325,5.795421
1417534280029219,1417534280034158,4939,INS_ALIGNMENT_COMPLETE,51.760647,-1.261421,113.573466,5735847.189987,619985.641217,-113.573466,30U,3.643892,-1.634684,0.025737,-0.002529,-0.007519,5.879186
1417534280091710,1417534280094158,2448,INS_ALIGNMENT_COMPLETE,51.760649,-1.261422,113.571881,5735847.407355,619985.539208,-113.571881,30U,3.680800,-1.596304,0.026482,-0.002019,-0.007389,5.892665
1417534280154200,1417534280154159,-41,INS_ALIGNMENT_COMPLETE,51.760651,-1.261423,113.570356,5735847.626858,619985.439099,-113.570356,30U,3.715318,-1.566926,0.025915,-0.002035,-0.007087,5.905567
1417534280216691,1417534280214159,-2532,INS_ALIGNMENT_COMPLETE,51.760653,-1.261425,113.568675,5735847.848498,619985.340720,-113.568675,30U,3.750881,-1.535097,0.030844,-0.002808,-0.006484,5.917897
1417534280591628,1417534280594161,2533,INS_SOLUTION_GOOD,51.760666,-1.261432,113.642367,5735849.317770,619984.810245,-113.642367,30U,3.991942,-1.286317,0.052218,-0.000941,-0.002333,5.981236
1417534280654116,1417534280654162,46,INS_SOLUTION_GOOD,51.760668,-1.261433,113.639048,5735849.556370,619984.727836,-113.639048,30U,4.026443,-1.274232,0.055215,-0.001268,-0.001124,5.989301
1417534280716606,1417534280714162,-2444,INS_SOLUTION_GOOD,51.760670,-1.261434,113.636065,5735849.796946,619984.645824,-113.636065,30U,4.057556,-1.266921,0.042314,-0.000303,-0.000190,5.996700
1417534280779094,1417534280774162,-4932,INS_SOLUTION_GOOD,51.760672,-1.261435,113.634387,5735850.039426,619984.564610,-113.634387,30U,4.088649,-1.247106,0.012359,-0.000076,-0.000224,6.003553
1417534281091564,1417534281094164,2600,INS_SOLUTION_GOOD,51.760684,-1.261441,113.637088,5735851.362806,619984.150924,-113.637088,30U,4.238853,-1.125541,-0.009403,-0.006045,-0.003251,6.036278
1417534281154061,1417534281154165,104,INS_SOLUTION_GOOD,51.760687,-1.261442,113.636984,5735851.616132,619984.078441,-113.636984,30U,4.262547,-1.089281,0.015544,-0.005281,-0.003580,6.041007
1417534281216559,1417534281214165,-2394,INS_SOLUTION_GOOD,51.760689,-1.261443,113.635631,5735851.870720,619984.007701,-113.635631,30U,4.276127,-1.071453,0.012109,-0.005037,-0.003422,6.045363
1417534281279049,1417534281274165,-4884,INS_SOLUTION_GOOD,51.760691,-1.261444,113.636275,5735852.125795,619983.937180,-113.636275,30U,4.282318,-1.077875,-0.020792,-0.006520,-0.004416,6.049864
1417534281591496,1417534281594167,2671,INS_SOLUTION_GOOD,51.760704,-1.261448,113.640101,5735853.485301,619983.626178,-113.640101,30U,4.326396,-1.025640,0.022203,-0.018076,-0.010925,6.066192
1417534281653986,1417534281654168,182,INS_SOLUTION_GOOD,51.760706,-1.261448,113.638675,5735853.743203,619983.558937,-113.638675,30U,4.322403,-1.008499,0.026978,-0.018916,-0.010582,6.069579
1417534281716476,1417534281714168,-2308,INS_SOLUTION_GOOD,51.760708,-1.261449,113.636857,5735854.000796,619983.493271,-113.636857,30U,4.313250,-0.970264,0.030930,-0.017115,-0.008585,6.072748
1417534281778967,1417534281774168,-4799,INS_SOLUTION_GOOD,51.760711,-1.261450,113.635002,5735854.257740,619983.430345,-113.635002,30U,4.302050,-0.923098,0.032856,-0.011519,-0.004639,6.075082
1417534282091432,1417534282094170,2738,INS_SOLUTION_GOOD,51.760723,-1.261454,113.620814,5735855.616010,619983.107069,-113.620814,30U,4.229201,-0.964513,0.088231,-0.000043,0.016335,6.082193
1417534282153917,1417534282154170,253,INS_SOLUTION_GOOD,51.760725,-1.261455,113.615810,5735855.867923,619983.043125,-113.615810,30U,4.217940,-0.963112,0.076050,-0.007412,0.016573,6.083555
1417534282216417,1417534282214171,-2246,INS_SOLUTION_GOOD,51.760727,-1.261456,113.611819,5735856.119127,619982.979789,-113.611819,30U,4.204909,-0.944408,0.055209,-0.014093,0.015804,6.084545
1417534282278906,1417534282274171,-4735,INS_SOLUTION_GOOD,51.760729,-1.261457,113.639613,5735856.301378,619982.933915,-113.639613,30U,4.181746,-0.912778,0.011985,-0.018323,0.014836,6.084720
1417534282591390,1417534282594173,2783,INS_SOLUTION_GOOD,51.760741,-1.261460,113.692766,5735857.615244,619982.637929,-113.692766,30U,4.068680,-0.838887,-0.167881,0.004075,-0.000959,6.085945
1417534282653881,1417534282654173,292,INS_SOLUTION_GOOD,51.760743,-1.261461,113.700641,5735857.857324,619982.581506,-113.700641,30U,4.044525,-0.844252,-0.095855,0.006313,-0.002876,6.086216
1417534282716373,1417534282714174,-2199,INS_SOLUTION_GOOD,51.760745,-1.261462,113.703517,5735858.098155,619982.524925,-113.703517,30U,4.028436,-0.849451,0.008014,0.005866,-0.003367,6.085988
1417534282778864,1417534282774174,-4690,INS_SOLUTION_GOOD,51.760747,-1.261463,113.699819,5735858.337879,619982.467770,-113.699819,30U,4.007643,-0.865174,0.102493,0.002635,-0.001763,6.085853
1417534283091310,1417534283094176,2866,INS_SOLUTION_GOOD,51.760759,-1.261467,113.683886,5735859.596061,619982.166959,-113.683886,30U,3.914228,-0.788407,-0.049952,-0.007757,0.001467,6.085856
1417534283153799,1417534283154176,377,INS_SOLUTION_GOOD,51.760761,-1.261467,113.686889,5735859.829209,619982.114084,-113.686889,30U,3.898737,-0.792685,-0.048348,-0.006751,0.000304,6.085531
1417534283216289,1417534283214177,-2112,INS_SOLUTION_GOOD,51.760763,-1.261467,113.691553,5735860.023203,619982.123300,-113.691553,30U,3.855451,-0.792152,-0.044676,-0.006386,-0.000814,6.087668
1417534283278779,1417534283274177,-4602,INS_SOLUTION_GOOD,51.760765,-1.261468,113.694064,5735860.252714,619982.070048,-113.694064,30U,3.837067,-0.800389,-0.036429,-0.006103,-0.002707,6.087573
1417534283591229,1417534283594179,2950,INS_SOLUTION_GOOD,51.760776,-1.261471,113.695259,5735861.460014,619981.785609,-113.695259,30U,3.757301,-0.788992,0.015685,-0.014077,-0.009661,6.083943
1417534283653723,1417534283654179,456,INS_SOLUTION_GOOD,51.760778,-1.261472,113.694119,5735861.683764,619981.732939,-113.694119,30U,3.742089,-0.786483,0.017232,-0.013459,-0.010068,6.082516
1417534283716209,1417534283714179,-2030,INS_SOLUTION_GOOD,51.760780,-1.261473,113.693545,5735861.906561,619981.680761,-113.693545,30U,3.725058,-0.777151,0.002047,-0.012341,-0.010480,6.080787
1417534283778700,1417534283774180,-4520,INS_SOLUTION_GOOD,51.760782,-1.261473,113.693419,5735862.128310,619981.628877,-113.693419,30U,3.706006,-0.778141,0.006374,-0.011768,-0.010700,6.078831
1417534284091167,1417534284094182,3015,INS_SOLUTION_GOOD,51.760792,-1.261477,113.679278,5735863.285773,619981.345080,-113.679278,30U,3.561100,-0.809002,0.057728,-0.011032,-0.005511,6.067318
1417534284153666,1417534284154182,516,INS_SOLUTION_GOOD,51.760794,-1.261478,113.675267,5735863.496856,619981.291024,-113.675267,30U,3.518467,-0.822799,0.070910,-0.013763,-0.004713,6.065275
1417534284216168,1417534284214182,-1986,INS_SOLUTION_GOOD,51.760796,-1.261479,113.280998,5735863.710612,619981.198541,-113.280998,30U,3.476183,-0.835567,0.066118,-0.016420,-0.003628,6.063089
1417534284278657,1417534284274183,-4474,INS_SOLUTION_GOOD,51.760798,-1.261480,113.277852,5735863.916543,619981.143470,-113.277852,30U,3.433785,-0.832805,0.040582,-0.017770,-0.003435,6.060514
1417534284591109,1417534284594185,3076,INS_SOLUTION_GOOD,51.760807,-1.261484,113.273126,5735864.971073,619980.860804,-113.273126,30U,3.191738,-0.807012,-0.042293,-0.016236,-0.009043,6.043586
1417534284653599,1417534284654185,586,INS_SOLUTION_GOOD,51.760809,-1.261484,113.275561,5735865.160096,619980.808057,-113.275561,30U,3.152635,-0.799687,-0.030961,-0.015412,-0.010964,6.040146
1417534284716089,1417534284714185,-1904,INS_SOLUTION_GOOD,51.760811,-1.261485,113.275911,5735865.346956,619980.755933,-113.275911,30U,3.116279,-0.790080,0.015426,-0.013243,-0.011982,6.035972
1417534284778579,1417534284774186,-4393,INS_SOLUTION_GOOD,51.760812,-1.261486,113.274687,5735865.531603,619980.704569,-113.274687,30U,3.079041,-0.776812,0.029997,-0.011529,-0.012539,6.031455
1417534285091036,1417534285094187,3151,INS_SOLUTION_GOOD,51.760821,-1.261490,113.263663,5735866.473770,619980.417474,-113.263663,30U,2.878230,-0.828099,0.062671,-0.012788,-0.013131,6.009594
1417534285153535,1417534285154188,653,INS_SOLUTION_GOOD,51.760823,-1.261490,113.259510,5735866.644606,619980.363961,-113.259510,30U,2.857530,-0.821841,0.072569,-0.013381,-0.012025,6.004365
1417534285216024,1417534285214188,-1836,INS_SOLUTION_GOOD,51.760824,-1.261491,113.255287,5735866.813981,619980.310414,-113.255287,30U,2.829830,-0.829963,0.065666,-0.013502,-0.011627,5.998822
1417534285278522,1417534285274188,-4334,INS_SOLUTION_GOOD,51.760825,-1.261493,112.927785,5735866.896259,619980.194910,-112.927785,30U,2.776318,-0.850317,0.058963,-0.012847,-0.011963,5.992796
1417534285590981,1417534285594190,3209,INS_SOLUTION_GOOD,51.760833,-1.261497,112.910551,5735867.751647,619979.893299,-112.910551,30U,2.611258,-0.920140,0.053481,-0.009641,-0.013386,5.955280
1417534285653471,1417534285654191,720,INS_SOLUTION_GOOD,51.760834,-1.261497,112.907219,5735867.906003,619979.834081,-112.907219,30U,2.581485,-0.928889,0.060058,-0.009478,-0.013549,5.947075
1417534285715958,1417534285714191,-1767,INS_SOLUTION_GOOD,51.760835,-1.261498,112.903241,5735868.058660,619979.774528,-112.903241,30U,2.553937,-0.936461,0.072146,-0.009521,-0.013239,5.938469
1417534285778456,1417534285774191,-4265,INS_SOLUTION_GOOD,51.760837,-1.261499,112.898412,5735868.209615,619979.714143,-112.898412,30U,2.525456,-0.956897,0.089568,-0.009989,-0.012483,5.929690
1417534286090908,1417534286094193,3285,INS_SOLUTION_GOOD,51.760844,-1.261504,112.887253,5735868.979006,619979.382690,-112.887253,30U,2.329063,-0.995471,0.028522,-0.006112,-0.013800,5.877481
1417534286153405,1417534286154194,789,INS_SOLUTION_GOOD,51.760845,-1.261505,112.885134,5735869.116065,619979.319174,-112.885134,30U,2.289235,-1.011815,0.042476,-0.003197,-0.012562,5.866746
1417534286215896,1417534286214194,-1702,INS_SOLUTION_GOOD,51.760846,-1.261505,112.882127,5735869.250663,619979.254942,-112.882127,30U,2.247098,-1.021653,0.057241,-0.000869,-0.011281,5.855286
1417534286278385,1417534286274194,-4191,INS_SOLUTION_GOOD,51.760847,-1.261507,112.882656,5735869.343064,619979.113896,-112.882656,30U,2.189501,-1.052810,0.061755,0.000948,-0.010457,5.842587
1417534286590829,1417534286594196,3367,INS_SOLUTION_GOOD,51.760853,-1.261513,112.858891,5735869.994587,619978.742948,-112.858891,30U,1.944285,-1.165798,0.081579,0.001924,-0.006680,5.762720
1417534286653319,1417534286654196,877,INS_SOLUTION_GOOD,51.760854,-1.261514,112.854215,5735870.108493,619978.670147,-112.854215,30U,1.910125,-1.169439,0.076015,0.002867,-0.006310,5.746305
1417534286715809,1417534286714197,-1612,INS_SOLUTION_GOOD,51.760855,-1.261515,112.849718,5735870.220227,619978.597275,-112.849718,30U,1.869711,-1.171263,0.072865,0.003857,-0.005973,5.729083
1417534286778298,1417534286774197,-4101,INS_SOLUTION_GOOD,51.760856,-1.261516,112.845771,5735870.329222,619978.524228,-112.845771,30U,1.820859,-1.177559,0.056883,0.005402,-0.005670,5.711036
1417534287090766,1417534287094199,3433,INS_SOLUTION_GOOD,51.760861,-1.261521,112.835132,5735870.858842,619978.123449,-112.835132,30U,1.531387,-1.271815,0.022595,0.014949,-0.008929,5.605856
1417534287153258,1417534287154199,941,INS_SOLUTION_GOOD,51.760862,-1.261522,112.833249,5735870.947199,619978.044342,-112.833249,30U,1.478441,-1.292233,0.041288,0.014908,-0.009716,5.586252
1417534287215749,1417534287214200,-1549,INS_SOLUTION_GOOD,51.760862,-1.261523,112.830412,5735871.032555,619977.964560,-112.830412,30U,1.430156,-1.297449,0.048109,0.014433,-0.009919,5.566447
1417534287278239,1417534287274200,-4039,INS_SOLUTION_GOOD,51.760863,-1.261524,112.877591,5735871.113049,619977.938870,-112.877591,30U,1.387452,-1.286790,0.019529,0.013435,-0.010201,5.546525
1417534287590689,1417534287594202,3513,INS_SOLUTION_GOOD,51.760867,-1.261530,112.867931,5735871.508306,619977.515945,-112.867931,30U,1.149218,-1.299709,0.071625,0.014504,-0.010993,5.435504
1417534287653180,1417534287654202,1022,INS_SOLUTION_GOOD,51.760867,-1.261531,112.863801,5735871.574069,619977.436514,-112.863801,30U,1.105737,-1.296277,0.062138,0.015549,-0.010355,5.414187
1417534287715667,1417534287714203,-1464,INS_SOLUTION_GOOD,51.760868,-1.261532,112.860573,5735871.637136,619977.357116,-112.860573,30U,1.058557,-1.301735,0.047951,0.015883,-0.010311,5.392683
1417534287778157,1417534287774203,-3954,INS_SOLUTION_GOOD,51.760869,-1.261533,112.857730,5735871.697159,619977.277316,-112.857730,30U,1.006173,-1.310599,0.047318,0.016530,-0.010722,5.371199
1417534288090607,1417534288094205,3598,INS_SOLUTION_GOOD,51.760871,-1.261539,112.841732,5735871.977659,619976.850088,-112.841732,30U,0.817118,-1.312140,0.038110,0.024272,-0.013647,5.252128
1417534288153096,1417534288154205,1109,INS_SOLUTION_GOOD,51.760872,-1.261540,112.839133,5735872.023757,619976.769966,-112.839133,30U,0.783435,-1.324092,0.051112,0.026674,-0.014139,5.228643
1417534288215587,1417534288214206,-1381,INS_SOLUTION_GOOD,51.760872,-1.261542,112.835773,5735872.067531,619976.689014,-112.835773,30U,0.737844,-1.340363,0.055491,0.028671,-0.014343,5.205370
1417534288278079,1417534288274206,-3873,INS_SOLUTION_GOOD,51.760872,-1.261543,112.842488,5735872.085396,619976.626074,-112.842488,30U,0.677486,-1.356477,0.040305,0.029191,-0.014726,5.182468
1417534288590529,1417534288594208,3679,INS_SOLUTION_GOOD,51.760874,-1.261549,112.830633,5735872.265101,619976.184569,-112.830633,30U,0.519828,-1.365211,0.031358,0.029974,-0.017859,5.065701
1417534288653018,1417534288654208,1190,INS_SOLUTION_GOOD,51.760874,-1.261550,112.828614,5735872.292982,619976.101725,-112.828614,30U,0.474670,-1.373748,0.035975,0.030812,-0.018243,5.044036
1417534288715522,1417534288714208,-1314,INS_SOLUTION_GOOD,51.760874,-1.261551,112.826363,5735872.318156,619976.018514,-112.826363,30U,0.431776,-1.378481,0.037844,0.031041,-0.018384,5.023145
1417534288778006,1417534288774209,-3797,INS_SOLUTION_GOOD,51.760875,-1.261552,112.824112,5735872.341030,619975.935290,-112.824112,30U,0.398557,-1.375547,0.036794,0.030894,-0.018495,5.002707
1417534289090469,1417534289094211,3742,INS_SOLUTION_GOOD,51.760876,-1.261559,112.805258,5735872.438847,619975.495435,-112.805258,30U,0.269007,-1.363023,0.070468,0.037115,-0.017451,4.892348
1417534289152966,1417534289154211,1245,INS_SOLUTION_GOOD,51.760876,-1.261560,112.801319,5735872.452060,619975.413475,-112.801319,30U,0.237112,-1.357393,0.060791,0.039036,-0.016803,4.872226
1417534289215465,1417534289214211,-1254,INS_SOLUTION_GOOD,51.760876,-1.261561,112.797892,5735872.463441,619975.332016,-112.797892,30U,0.207244,-1.348811,0.054192,0.040413,-0.016158,4.852362
1417534289277955,1417534289274212,-3743,INS_SOLUTION_GOOD,51.760877,-1.261561,112.806763,5735872.580514,619975.347428,-112.806763,30U,0.197517,-1.324371,0.048908,0.041594,-0.015348,4.832448
1417534289590437,1417534289594214,3777,INS_SOLUTION_GOOD,51.760877,-1.261567,112.789699,5735872.609029,619974.931794,-112.789699,30U,0.045328,-1.272465,0.056200,0.044666,-0.012811,4.729918
1417534289652924,1417534289654214,1290,INS_SOLUTION_GOOD,51.760877,-1.261568,112.786300,5735872.609400,619974.855699,-112.786300,30U,0.028194,-1.264428,0.058522,0.044522,-0.012581,4.711390
1417534289715415,1417534289714214,-1201,INS_SOLUTION_GOOD,51.760877,-1.261569,112.782663,5735872.608695,619974.780076,-112.782663,30U,0.007252,-1.256040,0.062065,0.044212,-0.012113,4.692923
1417534289777905,1417534289774215,-3690,INS_SOLUTION_GOOD,51.760877,-1.261570,112.778826,5735872.606649,619974.705075,-112.778826,30U,-0.015579,-1.245358,0.065027,0.044585,-0.011379,4.674551
1417534290090351,1417534290094216,3865,INS_SOLUTION_GOOD,51.760877,-1.261576,112.760293,5735872.575580,619974.316679,-112.760293,30U,-0.126358,-1.182807,0.051766,0.048732,-0.007136,4.579412
1417534290152840,1417534290154217,1377,INS_SOLUTION_GOOD,51.760877,-1.261577,112.757441,5735872.565815,619974.246400,-112.757441,30U,-0.143109,-1.167810,0.043843,0.048794,-0.006477,4.562481
1417534290215330,1417534290214217,-1113,INS_SOLUTION_GOOD,51.760877,-1.261578,112.754897,5735872.555036,619974.177013,-112.754897,30U,-0.161336,-1.153259,0.041504,0.048359,-0.005894,4.545849
1417534290277819,1417534290274217,-3602,INS_BAD_GPS_AGREEMENT,51.760877,-1.261578,112.765725,5735872.535650,619974.161962,-112.765725,30U,-0.182225,-1.117433,0.038638,0.047665,-0.005203,4.526444
1417534290590265,1417534290594219,3954,INS_BAD_GPS_AGREEMENT,51.760876,-1.261583,112.753054,5735872.457477,619973.818075,-112.753054,30U,-0.250164,-1.046675,0.045926,0.046572,-0.001351,4.447324
1417534290652755,1417534290654220,1465,INS_BAD_GPS_AGREEMENT,51.760876,-1.261584,112.750154,5735872.440547,619973.755981,-112.750154,30U,-0.265322,-1.036348,0.049913,0.046760,-0.000325,4.433799
1417534290715245,1417534290714220,-1025,INS_BAD_GPS_AGREEMENT,51.760876,-1.261585,112.747146,5735872.422685,619973.694566,-112.747146,30U,-0.281900,-1.025167,0.049856,0.046749,0.000775,4.420953
1417534290777734,1417534290774220,-3514,INS_BAD_GPS_AGREEMENT,51.760876,-1.261586,112.744327,5735872.403887,619973.633831,-112.744327,30U,-0.295521,-1.014226,0.042210,0.046605,0.001790,4.408839
1417534291090181,1417534291094222,4041,INS_BAD_GPS_AGREEMENT,51.760875,-1.261590,112.733505,5735872.294362,619973.318832,-112.733505,30U,-0.344261,-0.976343,0.041381,0.047538,0.004623,4.354765
1417534291152670,1417534291154223,1553,INS_BAD_GPS_AGREEMENT,51.760875,-1.261591,112.731046,5735872.272087,619973.261016,-112.731046,30U,-0.351910,-0.968522,0.040126,0.047931,0.005188,4.346389
1417534291215159,1417534291214223,-936,INS_BAD_GPS_AGREEMENT,51.760874,-1.261592,112.728735,5735872.249359,619973.203681,-112.728735,30U,-0.360080,-0.960726,0.037030,0.048177,0.005743,4.338324
1417534291277649,1417534291274223,-3426,INS_BAD_GPS_AGREEMENT,51.760874,-1.261592,112.744650,5735872.203310,619973.189678,-112.744650,30U,-0.372056,-0.939957,0.035953,0.048114,0.006357,4.328110
1417534291590096,1417534291594225,4129,INS_BAD_GPS_AGREEMENT,51.760873,-1.261597,112.733122,5735872.069282,619972.895161,-112.733122,30U,-0.406822,-0.930889,0.041828,0.045511,0.009019,4.293961
1417534291652585,1417534291654225,1640,INS_BAD_GPS_AGREEMENT,51.760873,-1.261597,112.730484,5735872.043568,619972.839843,-112.730484,30U,-0.407408,-0.932972,0.045191,0.045762,0.009734,4.288430
1417534291715075,1417534291714226,-849,INS_BAD_GPS_AGREEMENT,51.760872,-1.261598,112.727781,5735872.017607,619972.784486,-112.727781,30U,-0.415480,-0.932089,0.044217,0.046139,0.010473,4.283236
1417534291777563,1417534291774226,-3337,INS_BAD_GPS_AGREEMENT,51.760872,-1.261599,112.725178,5735871.990928,619972.729274,-112.725178,30U,-0.430515,-0.929200,0.042275,0.046499,0.011129,4.278608
1417534292090010,1417534292094228,4218,INS_BAD_GPS_AGREEMENT,51.760871,-1.261603,112.714772,5735871.840851,619972.435281,-112.714772,30U,-0.457561,-0.934342,0.032018,0.046341,0.012067,4.258215
1417534292152502,1417534292154228,1726,INS_BAD_GPS_AGREEMENT,51.760871,-1.261604,112.712787,5735871.811761,619972.379929,-112.712787,30U,-0.468395,-0.933543,0.033751,0.046140,0.012284,4.255029
1417534292214990,1417534292214229,-761,INS_BAD_GPS_AGREEMENT,51.760870,-1.261605,112.710797,5735871.782083,619972.324698,-112.710797,30U,-0.476462,-0.931243,0.031790,0.045900,0.012507,4.252432
1417534292277481,1417534292274229,-3252,INS_BAD_GPS_AGREEMENT,51.760870,-1.261605,112.706321,5735871.772253,619972.312920,-112.706321,30U,-0.477622,-0.921683,0.027860,0.045615,0.012692,4.248861
1417534292589926,1417534292594231,4305,INS_BAD_GPS_AGREEMENT,51.760869,-1.261609,112.697952,5735871.612329,619972.022070,-112.697952,30U,-0.483348,-0.913101,0.021058,0.045059,0.013497,4.240910
1417534292652416,1417534292654231,1815,INS_BAD_GPS_AGREEMENT,51.760869,-1.261610,112.696714,5735871.581995,619971.968103,-112.696714,30U,-0.484256,-0.909811,0.020740,0.044904,0.013575,4.240249
1417534292714905,1417534292714232,-673,INS_BAD_GPS_AGREEMENT,51.760868,-1.261611,112.695358,5735871.551694,619971.914295,-112.695358,30U,-0.482431,-0.907753,0.024106,0.044633,0.013746,4.239708
1417534292777394,1417534292774232,-3162,INS_BAD_GPS_AGREEMENT,51.760868,-1.261612,112.693937,5735871.521533,619971.860639,-112.693937,30U,-0.480494,-0.904064,0.022494,0.044102,0.014031,4.239223
1417534293089843,1417534293094234,4391,INS_BAD_GPS_AGREEMENT,51.760867,-1.261616,112.688119,5735871.360002,619971.580012,-112.688119,30U,-0.471175,-0.884325,0.018968,0.040835,0.014483,4.240933
1417534293152332,1417534293154234,1902,INS_BAD_GPS_AGREEMENT,51.760867,-1.261617,112.686903,5735871.330699,619971.527662,-112.686903,30U,-0.465164,-0.882984,0.021665,0.040373,0.014315,4.241350
1417534293214821,1417534293214235,-586,INS_BAD_GPS_AGREEMENT,51.760866,-1.261617,112.685593,5735871.301568,619971.475575,-112.685593,30U,-0.464773,-0.875477,0.020895,0.039973,0.014215,4.241918
1417534293277311,1417534293274235,-3076,INS_BAD_GPS_AGREEMENT,51.760866,-1.261618,112.680389,5735871.280655,619971.434400,-112.680389,30U,-0.463283,-0.861346,0.016939,0.039603,0.014078,4.242591
1417534293589760,1417534293594237,4477,INS_BAD_GPS_AGREEMENT,51.760865,-1.261622,112.677047,5735871.133710,619971.174310,-112.677047,30U,-0.412145,-0.785956,0.013111,0.040221,0.012586,4.251815
1417534293652248,1417534293654237,1989,INS_BAD_GPS_AGREEMENT,51.760865,-1.261622,112.676134,5735871.108072,619971.128192,-112.676134,30U,-0.405835,-0.771648,0.016793,0.040584,0.012234,4.253731
1417534293714737,1417534293714237,-500,INS_BAD_GPS_AGREEMENT,51.760864,-1.261623,112.675014,5735871.082837,619971.082911,-112.675014,30U,-0.399257,-0.757763,0.019889,0.040900,0.011902,4.255599
1417534293777236,1417534293774238,-2998,INS_BAD_GPS_AGREEMENT,51.760864,-1.261624,112.673892,5735871.058046,619971.038428,-112.673892,30U,-0.391399,-0.745002,0.016588,0.041034,0.011557,4.257400
1417534294089712,1417534294094240,4528,INS_BAD_GPS_AGREEMENT,51.760863,-1.261627,112.671592,5735870.938617,619970.820283,-112.671592,30U,-0.306088,-0.598718,0.007421,0.042138,0.008746,4.266021
1417534294152211,1417534294154240,2029,INS_BAD_GPS_AGREEMENT,51.760863,-1.261627,112.671039,5735870.920222,619970.786512,-112.671039,30U,-0.279630,-0.540631,0.011026,0.042563,0.008238,4.267358
1417534294214710,1417534294214240,-470,INS_BAD_GPS_AGREEMENT,51.760863,-1.261628,112.670247,5735870.903616,619970.756300,-112.670247,30U,-0.249676,-0.479301,0.016096,0.042896,0.007811,4.268555
1417534294277200,1417534294274241,-2959,INS_SOLUTION_GOOD,51.760864,-1.261626,112.582623,5735871.053195,619970.902361,-112.582623,30U,-0.216324,-0.414124,0.024849,0.042891,0.007644,4.270327
1417534294589687,1417534294594243,4556,INS_SOLUTION_GOOD,51.760864,-1.261627,112.573197,5735871.004556,619970.818507,-112.573197,30U,-0.077501,-0.129520,0.032474,0.042338,0.007926,4.273383
1417534294652185,1417534294654243,2058,INS_SOLUTION_GOOD,51.760864,-1.261627,112.571187,5735871.000451,619970.812193,-112.571187,30U,-0.054540,-0.084121,0.033805,0.042366,0.008001,4.273570
1417534294714675,1417534294714243,-432,INS_SOLUTION_GOOD,51.760864,-1.261627,112.569211,5735870.997755,619970.808591,-112.569211,30U,-0.033260,-0.038932,0.032974,0.042405,0.008053,4.273659
1417534295089641,1417534295094245,4604,INS_SOLUTION_GOOD,51.760864,-1.261627,112.557118,5735870.991283,619970.808949,-112.557118,30U,-0.022858,-0.017935,0.019999,0.041917,0.009639,4.273711
1417534295152130,1417534295154246,2116,INS_SOLUTION_GOOD,51.760864,-1.261627,112.555761,5735870.990083,619970.808209,-112.555761,30U,-0.017076,-0.007767,0.027294,0.041975,0.009174,4.273645
1417534295214620,1417534295214246,-374,INS_SOLUTION_GOOD,51.760864,-1.261627,112.553720,5735870.989098,619970.807961,-112.553720,30U,-0.016376,-0.002340,0.040102,0.041990,0.009019,4.273632
1417534295277117,1417534295274246,-2871,INS_SOLUTION_GOOD,51.760864,-1.261627,112.551184,5735870.988048,619970.807847,-112.551184,30U,-0.018362,-0.003082,0.041943,0.042003,0.009293,4.273693
1417534295589594,1417534295594248,4654,INS_SOLUTION_GOOD,51.760864,-1.261627,112.574867,5735871.028808,619970.823535,-112.574867,30U,-0.014874,-0.005171,0.034765,0.042078,0.009236,4.273438
1417534295652091,1417534295654249,2158,INS_SOLUTION_GOOD,51.760864,-1.261627,112.572880,5735871.027970,619970.823232,-112.572880,30U,-0.012933,-0.006304,0.030984,0.042041,0.009422,4.273461
1417534295714589,1417534295714249,-340,INS_SOLUTION_GOOD,51.760864,-1.261627,112.571190,5735871.027176,619970.822782,-112.571190,30U,-0.013492,-0.009343,0.025999,0.042056,0.009471,4.273426
1417534295777105,1417534295774249,-2856,INS_SOLUTION_GOOD,51.760864,-1.261627,112.569682,5735871.026281,619970.822158,-112.569682,30U,-0.015876,-0.011843,0.025284,0.042103,0.009374,4.273394
1417534296089552,1417534296094251,4699,INS_SOLUTION_GOOD,51.760864,-1.261627,112.560552,5735871.021231,619970.819468,-112.560552,30U,-0.016593,-0.009951,0.026605,0.042052,0.009392,4.273416
1417534296152041,1417534296154252,2211,INS_SOLUTION_GOOD,51.760864,-1.261627,112.558941,5735871.020187,619970.818853,-112.558941,30U,-0.017313,-0.011090,0.027368,0.042058,0.009333,4.273435
1417534296214535,1417534296214252,-283,INS_SOLUTION_GOOD,51.760864,-1.261627,112.557271,5735871.019151,619970.818216,-112.557271,30U,-0.016439,-0.010709,0.028211,0.042085,0.009258,4.273450
1417534296277027,1417534296274252,-2775,INS_SOLUTION_GOOD,51.760864,-1.261627,112.555548,5735871.018193,619970.817630,-112.555548,30U,-0.015283,-0.009624,0.028904,0.042100,0.009252,4.273438
1417534296589474,1417534296594254,4780,INS_SOLUTION_GOOD,51.760864,-1.261623,112.226346,5735871.041170,619971.069403,-112.226346,30U,-0.018115,-0.005839,0.030566,0.042026,0.009276,4.274444
1417534296651964,1417534296654254,2290,INS_SOLUTION_GOOD,51.760864,-1.261623,112.224530,5735871.040097,619971.069108,-112.224530,30U,-0.017653,-0.004797,0.029814,0.042031,0.009294,4.274437
1417534296714456,1417534296714255,-201,INS_SOLUTION_GOOD,51.760864,-1.261623,112.222765,5735871.039038,619971.068852,-112.222765,30U,-0.017671,-0.004805,0.029277,0.042043,0.009337,4.274447
1417534296776946,1417534296774255,-2691,INS_SOLUTION_GOOD,51.760864,-1.261623,112.221006,5735871.037971,619971.068566,-112.221006,30U,-0.017779,-0.005663,0.029396,0.042055,0.009362,4.274464
1417534297089391,1417534297094257,4866,INS_SOLUTION_GOOD,51.760864,-1.261623,112.211848,5735871.032102,619971.066735,-112.211848,30U,-0.017694,-0.005824,0.028937,0.042031,0.009344,4.274464
1417534297151895,1417534297154257,2362,INS_SOLUTION_GOOD,51.760864,-1.261623,112.210121,5735871.031048,619971.066377,-112.210121,30U,-0.017373,-0.007054,0.028635,0.042039,0.009344,4.274452
1417534297214370,1417534297214258,-112,INS_SOLUTION_GOOD,51.760864,-1.261623,112.208438,5735871.029991,619971.065963,-112.208438,30U,-0.017599,-0.007376,0.027557,0.042061,0.009322,4.274450
1417534297276859,1417534297274258,-2601,INS_SOLUTION_GOOD,51.760864,-1.261623,112.206811,5735871.028909,619971.065562,-112.206811,30U,-0.017915,-0.006745,0.026742,0.042080,0.009294,4.274458
1417534297589308,1417534297594260,4952,INS_SOLUTION_GOOD,51.760864,-1.261623,112.215404,5735871.031913,619971.062231,-112.215404,30U,-0.016245,-0.007192,0.023932,0.042053,0.009302,4.274355
1417534297651798,1417534297654260,2462,INS_SOLUTION_GOOD,51.760864,-1.261623,112.213976,5735871.030955,619971.061822,-112.213976,30U,-0.015556,-0.007110,0.023768,0.042074,0.009283,4.274359
1417534297714302,1417534297714261,-41,INS_SOLUTION_GOOD,51.760864,-1.261623,112.212540,5735871.030001,619971.061445,-112.212540,30U,-0.016082,-0.006117,0.024461,0.042105,0.009297,4.274360
1417534297776778,1417534297774261,-2517,INS_SOLUTION_GOOD,51.760864,-1.261623,112.211056,5735871.029007,619971.061124,-112.211056,30U,-0.016878,-0.005539,0.024856,0.042105,0.009328,4.274364
1417534298151718,1417534298154263,2545,INS_SOLUTION_GOOD,51.760864,-1.261624,112.201852,5735871.022249,619971.058820,-112.201852,30U,-0.017200,-0.006662,0.024970,0.042084,0.009333,4.274372
1417534298214207,1417534298214264,57,INS_SOLUTION_GOOD,51.760864,-1.261624,112.200375,5735871.021187,619971.058425,-112.200375,30U,-0.017714,-0.007343,0.024266,0.042091,0.009332,4.274364
1417534298276697,1417534298274264,-2433,INS_SOLUTION_GOOD,51.760864,-1.261624,112.347778,5735871.072782,619971.042392,-112.347778,30U,-0.007788,-0.001966,0.007239,0.042159,0.009400,4.271061
1417534298339187,1417534298334264,-4923,INS_SOLUTION_GOOD,51.760864,-1.261624,112.348481,5735871.065502,619971.034061,-112.348481,30U,-0.008334,-0.001155,0.007503,0.042136,0.009402,4.270400
1417534298651638,1417534298654266,2628,INS_SOLUTION_GOOD,51.760864,-1.261624,112.346306,5735871.063198,619971.033662,-112.346306,30U,-0.008089,-0.001458,0.005807,0.042190,0.009411,4.270406
1417534298714127,1417534298714266,139,INS_SOLUTION_GOOD,51.760864,-1.261624,112.345968,5735871.062697,619971.033596,-112.345968,30U,-0.008596,-0.001086,0.005405,0.042169,0.009411,4.270409
1417534298776618,1417534298774249,-2369,INS_SOLUTION_GOOD,51.760864,-1.261624,112.345649,5735871.062177,619971.033546,-112.345649,30U,-0.008623,-0.001029,0.005218,0.042134,0.009415,4.270406
