image_name,gpstimestamp,time_diff,ins_status,latitude,longitude,altitude,northing,easting,down,utm_zone,velocity_north,velocity_east,velocity_down,roll,pitch,yaw
1447410493070116,1447410493073512,3396,INS_ALIGNMENT_COMPLETE,51.760577,-1.261240,106.342467,5735839.775631,619998.287157,-106.342467,30U,0.001095,0.000803,-0.001585,0.041078,-0.004711,4.552895
1447410493132615,1447410493133470,855,INS_ALIGNMENT_COMPLETE,51.760577,-1.261240,106.343725,5735839.776353,619998.289690,-106.343725,30U,-0.000085,0.001590,-0.001410,0.041181,-0.004726,4.552304
1447410493195115,1447410493193594,-1521,INS_ALIGNMENT_COMPLETE,51.760577,-1.261240,106.344390,5735839.776660,619998.290948,-106.344390,30U,-0.000443,0.001804,-0.000950,0.041209,-0.004743,4.552220
1447410493257616,1447410493253719,-3897,INS_ALIGNMENT_COMPLETE,51.760577,-1.261240,106.344444,5735839.776642,619998.291062,-106.344444,30U,-0.000121,0.002103,-0.000910,0.041184,-0.004749,4.552219
1447410493570118,1447410493573661,3543,INS_ALIGNMENT_COMPLETE,51.760577,-1.261240,106.344714,5735839.776762,619998.291657,-106.344714,30U,-0.000790,0.002156,-0.001182,0.041201,-0.004745,4.552219
1447410493632620,1447410493633526,906,INS_ALIGNMENT_COMPLETE,51.760577,-1.261240,106.344789,5735839.776715,619998.291790,-106.344789,30U,-0.000791,0.002347,-0.001491,0.041180,-0.004747,4.552221
1447410493695120,1447410493693478,-1642,INS_ALIGNMENT_COMPLETE,51.760577,-1.261240,106.344869,5735839.776687,619998.291931,-106.344869,30U,-0.000302,0.002177,-0.001188,0.041165,-0.004744,4.552221
1447410493757622,1447410493753601,-4021,INS_ALIGNMENT_COMPLETE,51.760577,-1.261240,106.344925,5735839.776671,619998.292054,-106.344925,30U,-0.000348,0.002015,-0.001036,0.041167,-0.004742,4.552222
1447410494070126,1447410494073493,3367,INS_ALIGNMENT_COMPLETE,51.760577,-1.261240,106.343987,5735839.777014,619998.290416,-106.343987,30U,-0.001867,0.001816,-0.000908,0.041217,-0.004678,4.551797
1447410494132625,1447410494133615,990,INS_ALIGNMENT_COMPLETE,51.760577,-1.261240,106.343093,5735839.775542,619998.289505,-106.343093,30U,-0.002142,0.001409,-0.000951,0.041141,-0.004617,4.550922
1447410494195126,1447410494193737,-1389,INS_ALIGNMENT_COMPLETE,51.760577,-1.261240,106.342660,5735839.774726,619998.289086,-106.342660,30U,-0.002166,0.001494,-0.000544,0.041117,-0.004590,4.550487
1447410494257627,1447410494253825,-3802,INS_ALIGNMENT_COMPLETE,51.760577,-1.261240,106.342688,5735839.774591,619998.289169,-106.342688,30U,-0.002195,0.001313,-0.000250,0.041122,-0.004590,4.550489
1447410494570127,1447410494573933,3806,INS_ALIGNMENT_COMPLETE,51.760577,-1.261240,106.342527,5735839.773972,619998.289552,-106.342527,30U,-0.001407,0.001294,0.001190,0.041155,-0.004734,4.550487
1447410494632628,1447410494633845,1217,INS_ALIGNMENT_COMPLETE,51.760577,-1.261240,106.342446,5735839.773903,619998.289622,-106.342446,30U,-0.001076,0.000664,0.001246,0.041161,-0.004752,4.550488
1447410494695128,1447410494693884,-1244,INS_ALIGNMENT_COMPLETE,51.760577,-1.261240,106.342377,5735839.773834,619998.289647,-106.342377,30U,-0.001059,0.000381,0.001029,0.041177,-0.004785,4.550483
1447410494757628,1447410494754005,-3623,INS_ALIGNMENT_COMPLETE,51.760577,-1.261240,106.342312,5735839.773758,619998.289676,-106.342312,30U,-0.001569,0.000525,0.001365,0.041192,-0.004818,4.550483
1447410495070130,1447410495073784,3654,INS_ALIGNMENT_COMPLETE,51.760577,-1.261240,106.343003,5735839.775388,619998.289296,-106.343003,30U,-0.000848,0.001159,0.002143,0.041219,-0.004810,4.550498
1447410495132634,1447410495133904,1270,INS_ALIGNMENT_COMPLETE,51.760577,-1.261240,106.342862,5735839.775326,619998.289421,-106.342862,30U,-0.001091,0.002455,0.002609,0.041235,-0.004803,4.550507
1447410495195131,1447410495193900,-1231,INS_ALIGNMENT_COMPLETE,51.760577,-1.261240,106.342694,5735839.775266,619998.289523,-106.342694,30U,-0.000825,0.000581,0.002705,0.041239,-0.004762,4.550530
1447410495257636,1447410495253912,-3724,INS_ALIGNMENT_COMPLETE,51.760577,-1.261240,106.342558,5735839.775223,619998.289498,-106.342558,30U,-0.000672,-0.000976,0.001441,0.041227,-0.004734,4.550527
1447410495570135,1447410495574003,3868,INS_ALIGNMENT_COMPLETE,51.760577,-1.261240,106.341924,5735839.774955,619998.289450,-106.341924,30U,-0.001114,-0.000365,0.002011,0.041234,-0.004752,4.550505
1447410495632636,1447410495633915,1279,INS_ALIGNMENT_COMPLETE,51.760577,-1.261240,106.341776,5735839.774848,619998.289408,-106.341776,30U,-0.002125,-0.000755,0.002873,0.041227,-0.004777,4.550508
1447410495695137,1447410495693996,-1141,INS_ALIGNMENT_COMPLETE,51.760577,-1.261240,106.341590,5735839.774729,619998.289387,-106.341590,30U,-0.001567,0.000099,0.003103,0.041205,-0.004784,4.550521
1447410495757637,1447410495753999,-3638,INS_ALIGNMENT_COMPLETE,51.760577,-1.261240,106.341392,5735839.774671,619998.289418,-106.341392,30U,-0.000467,0.000776,0.003181,0.041207,-0.004776,4.550522
1447410496070141,1447410496073847,3706,INS_ALIGNMENT_COMPLETE,51.760577,-1.261240,106.342396,5735839.775137,619998.288968,-106.342396,30U,-0.001443,0.000070,0.003871,0.041117,-0.004654,4.549744
1447410496132639,1447410496133965,1326,INS_ALIGNMENT_COMPLETE,51.760577,-1.261240,106.340604,5735839.772821,619998.287353,-106.340604,30U,-0.001759,-0.000390,0.003663,0.040972,-0.004505,4.548086
1447410496195140,1447410496193970,-1170,INS_ALIGNMENT_COMPLETE,51.760577,-1.261240,106.339599,5735839.771585,619998.286490,-106.339599,30U,-0.001756,-0.001499,0.003601,0.040893,-0.004430,4.547253
1447410496257641,1447410496254087,-3554,INS_ALIGNMENT_COMPLETE,51.760577,-1.261240,106.339369,5735839.771475,619998.286384,-106.339369,30U,-0.001771,-0.002088,0.003929,0.040907,-0.004420,4.547254
1447410496570144,1447410496573947,3803,INS_ALIGNMENT_COMPLETE,51.760577,-1.261240,106.338487,5735839.770826,619998.285938,-106.338487,30U,-0.002331,-0.001285,0.002866,0.040877,-0.004387,4.547236
1447410496632646,1447410496633861,1215,INS_ALIGNMENT_COMPLETE,51.760577,-1.261240,106.338314,5735839.770692,619998.285862,-106.338314,30U,-0.001888,-0.001307,0.002753,0.040902,-0.004384,4.547236
1447410496695145,1447410496693978,-1167,INS_ALIGNMENT_COMPLETE,51.760577,-1.261240,106.338133,5735839.770590,619998.285777,-106.338133,30U,-0.001362,-0.001678,0.003283,0.040917,-0.004375,4.547242
1447410496757659,1447410496754094,-3565,INS_ALIGNMENT_COMPLETE,51.760577,-1.261240,106.337902,5735839.770491,619998.285672,-106.337902,30U,-0.001886,-0.001533,0.004183,0.040937,-0.004338,4.547235
1447410497070148,1447410497074098,3950,INS_ALIGNMENT_COMPLETE,51.760577,-1.261240,106.340315,5735839.772719,619998.285458,-106.340315,30U,-0.001462,-0.000844,0.002446,0.040903,-0.004248,4.547302
1447410497132649,1447410497134124,1475,INS_ALIGNMENT_COMPLETE,51.760577,-1.261240,106.340145,5735839.772643,619998.285413,-106.340145,30U,-0.001248,-0.000847,0.003368,0.040919,-0.004266,4.547301
1447410497195149,1447410497193916,-1233,INS_ALIGNMENT_COMPLETE,51.760577,-1.261240,106.339923,5735839.772551,619998.285362,-106.339923,30U,-0.001829,-0.000911,0.003876,0.040933,-0.004258,4.547298
1447410497257649,1447410497253738,-3911,INS_ALIGNMENT_COMPLETE,51.760577,-1.261240,106.339692,5735839.772422,619998.285339,-106.339692,30U,-0.002471,-0.000063,0.003768,0.040934,-0.004242,4.547301
1447410497570154,1447410497573893,3739,INS_ALIGNMENT_COMPLETE,51.760577,-1.261240,106.338334,5735839.771717,619998.285144,-106.338334,30U,-0.001815,-0.000684,0.005052,0.040923,-0.004243,4.547285
1447410497632653,1447410497633836,1183,INS_ALIGNMENT_COMPLETE,51.760577,-1.261240,106.338031,5735839.771593,619998.285094,-106.338031,30U,-0.002230,-0.001030,0.005042,0.040931,-0.004240,4.547278
1447410497695155,1447410497693950,-1205,INS_ALIGNMENT_COMPLETE,51.760577,-1.261240,106.337726,5735839.771447,619998.285038,-106.337726,30U,-0.002463,-0.001092,0.005017,0.040922,-0.004242,4.547282
1447410497757657,1447410497754064,-3593,INS_ALIGNMENT_COMPLETE,51.760577,-1.261240,106.337438,5735839.771293,619998.284969,-106.337438,30U,-0.002577,-0.001248,0.004746,0.040915,-0.004247,4.547286
1447410498070157,1447410498074107,3950,INS_ALIGNMENT_COMPLETE,51.760577,-1.261240,106.339241,5735839.772739,619998.283989,-106.339241,30U,-0.002432,-0.002186,0.004690,0.040715,-0.004219,4.547698
1447410498132657,1447410498134150,1493,INS_ALIGNMENT_COMPLETE,51.760577,-1.261240,106.337960,5735839.772303,619998.281783,-106.337960,30U,-0.002452,-0.002328,0.004671,0.040545,-0.004223,4.547996
1447410498195156,1447410498194112,-1044,INS_ALIGNMENT_COMPLETE,51.760577,-1.261240,106.335658,5735839.771621,619998.277582,-106.335658,30U,-0.001965,-0.003389,0.004884,0.040207,-0.004220,4.548214
1447410498257657,1447410498254084,-3573,INS_ALIGNMENT_COMPLETE,51.760577,-1.261240,106.335362,5735839.771493,619998.277374,-106.335362,30U,-0.002234,-0.003691,0.005023,0.040200,-0.004220,4.548209
1447410498570160,1447410498573840,3680,INS_ALIGNMENT_COMPLETE,51.760577,-1.261240,106.333583,5735839.770754,619998.276114,-106.333583,30U,-0.002093,-0.004490,0.005567,0.040210,-0.004208,4.548212
1447410498632660,1447410498633923,1263,INS_ALIGNMENT_COMPLETE,51.760577,-1.261240,106.333275,5735839.770629,619998.275847,-106.333275,30U,-0.002024,-0.004435,0.004638,0.040188,-0.004219,4.548214
1447410498695161,1447410498694036,-1125,INS_ALIGNMENT_COMPLETE,51.760577,-1.261240,106.332988,5735839.770501,619998.275618,-106.332988,30U,-0.001976,-0.003549,0.005277,0.040183,-0.004228,4.548208
1447410498757664,1447410498754148,-3516,INS_ALIGNMENT_COMPLETE,51.760577,-1.261240,106.332650,5735839.770387,619998.275406,-106.332650,30U,-0.001693,-0.003773,0.006042,0.040191,-0.004220,4.548209
1447410499070166,1447410499074049,3883,INS_ALIGNMENT_COMPLETE,51.760577,-1.261240,106.334849,5735839.773168,619998.279570,-106.334849,30U,-0.001819,-0.002935,0.006127,0.040277,-0.004254,4.548524
1447410499132666,1447410499134113,1447,INS_ALIGNMENT_COMPLETE,51.760577,-1.261240,106.336499,5735839.774311,619998.282844,-106.336499,30U,-0.001231,-0.002336,0.004803,0.040536,-0.004298,4.548886
1447410499195167,1447410499193805,-1362,INS_ALIGNMENT_COMPLETE,51.760577,-1.261240,106.337233,5735839.774862,619998.284449,-106.337233,30U,-0.001002,-0.001749,0.003616,0.040700,-0.004317,4.549066
1447410499257668,1447410499253915,-3753,INS_ALIGNMENT_COMPLETE,51.760577,-1.261240,106.337027,5735839.774803,619998.284345,-106.337027,30U,-0.000957,-0.001715,0.003628,0.040689,-0.004314,4.549053
1447410499570169,1447410499573796,3627,INS_ALIGNMENT_COMPLETE,51.760577,-1.261240,106.335367,5735839.774332,619998.283731,-106.335367,30U,-0.001617,-0.001969,0.004557,0.040584,-0.004240,4.549015
1447410499632668,1447410499633857,1189,INS_ALIGNMENT_COMPLETE,51.760577,-1.261240,106.335073,5735839.774257,619998.283615,-106.335073,30U,-0.001080,-0.001912,0.005161,0.040540,-0.004229,4.549004
1447410499695169,1447410499693967,-1202,INS_ALIGNMENT_COMPLETE,51.760577,-1.261240,106.334763,5735839.774189,619998.283517,-106.334763,30U,-0.001145,-0.001495,0.005315,0.040533,-0.004213,4.549008
1447410499757671,1447410499754077,-3594,INS_ALIGNMENT_COMPLETE,51.760577,-1.261240,106.334460,5735839.774100,619998.283417,-106.334460,30U,-0.001669,-0.001945,0.004765,0.040541,-0.004190,4.549009
1447410500070173,1447410500074016,3843,INS_ALIGNMENT_COMPLETE,51.760577,-1.261240,106.332639,5735839.773324,619998.281776,-106.332639,30U,-0.002736,-0.014593,0.009251,0.040319,-0.003922,4.549026
1447410500132675,1447410500134078,1403,INS_ALIGNMENT_COMPLETE,51.760577,-1.261240,106.332076,5735839.773097,619998.280748,-106.332076,30U,-0.004523,-0.020130,0.009349,0.040255,-0.003804,4.549003
1447410500195175,1447410500193789,-1386,INS_ALIGNMENT_COMPLETE,51.760577,-1.261240,106.329673,5735839.775317,619998.281930,-106.329673,30U,-0.007983,-0.029354,0.010301,0.040213,-0.003658,4.549035
1447410500257678,1447410500253898,-3780,INS_ALIGNMENT_COMPLETE,51.760577,-1.261240,106.329078,5735839.774714,619998.279879,-106.329078,30U,-0.010310,-0.039841,0.009263,0.040161,-0.003476,4.549119
1447410500570178,1447410500573732,3554,INS_ALIGNMENT_COMPLETE,51.760577,-1.261240,106.327414,5735839.769431,619998.255378,-106.327414,30U,-0.021812,-0.112230,0.001936,0.039863,-0.003065,4.549799
1447410500632679,1447410500633803,1124,INS_ALIGNMENT_COMPLETE,51.760577,-1.261241,106.327312,5735839.767864,619998.248283,-106.327312,30U,-0.024501,-0.124952,0.001974,0.039766,-0.003031,4.550110
1447410500695180,1447410500693911,-1269,INS_ALIGNMENT_COMPLETE,51.760577,-1.261241,106.327195,5735839.766153,619998.240461,-106.327195,30U,-0.026249,-0.137426,0.003206,0.039635,-0.002999,4.550486
1447410500757681,1447410500754019,-3662,INS_ALIGNMENT_COMPLETE,51.760577,-1.261241,106.326992,5735839.764337,619998.231912,-106.326992,30U,-0.027225,-0.149326,0.003484,0.039493,-0.002923,4.550911
1447410501070183,1447410501074073,3890,INS_ALIGNMENT_COMPLETE,51.760577,-1.261242,106.326288,5735839.752538,619998.174612,-106.326288,30U,-0.036706,-0.210561,0.003552,0.039060,-0.002569,4.554931
1447410501132683,1447410501134024,1341,INS_ALIGNMENT_COMPLETE,51.760577,-1.261242,106.326090,5735839.749984,619998.161713,-106.326090,30U,-0.038266,-0.221614,0.003225,0.039068,-0.002480,4.555972
1447410501195184,1447410501193762,-1422,INS_ALIGNMENT_COMPLETE,51.760577,-1.261242,106.324645,5735839.746715,619998.150748,-106.324645,30U,-0.041329,-0.231321,0.002715,0.039009,-0.002378,4.557092
1447410501257685,1447410501253869,-3816,INS_ALIGNMENT_COMPLETE,51.760577,-1.261242,106.324495,5735839.743799,619998.136630,-106.324495,30U,-0.044350,-0.241405,0.002632,0.038957,-0.002291,4.558458
1447410501570187,1447410501573648,3461,INS_ALIGNMENT_COMPLETE,51.760577,-1.261243,106.323622,5735839.726961,619998.051512,-106.323622,30U,-0.049010,-0.291749,0.000983,0.039492,-0.001769,4.567668
1447410501632689,1447410501633744,1055,INS_ALIGNMENT_COMPLETE,51.760577,-1.261244,106.323599,5735839.723533,619998.033826,-106.323599,30U,-0.051226,-0.300438,-0.000317,0.039419,-0.001744,4.569671
1447410501695190,1447410501693850,-1340,INS_ALIGNMENT_COMPLETE,51.760577,-1.261244,106.323640,5735839.719983,619998.015631,-106.323640,30U,-0.052603,-0.308644,-0.000551,0.039313,-0.001735,4.571809
1447410501757691,1447410501753956,-3735,INS_ALIGNMENT_COMPLETE,51.760577,-1.261244,106.323638,5735839.716354,619997.996958,-106.323638,30U,-0.053870,-0.316582,0.000646,0.039244,-0.001690,4.574111
1447410502070193,1447410502074048,3855,INS_ALIGNMENT_COMPLETE,51.760577,-1.261246,106.323090,5735839.696555,619997.889376,-106.323090,30U,-0.056144,-0.356377,0.004079,0.039729,-0.001170,4.588167
1447410502132695,1447410502134153,1458,INS_ALIGNMENT_COMPLETE,51.760577,-1.261246,106.322895,5735839.692645,619997.867919,-106.322895,30U,-0.056863,-0.361450,0.002313,0.039714,-0.001026,4.591028
1447410502195193,1447410502193804,-1389,INS_ALIGNMENT_COMPLETE,51.760576,-1.261246,106.273181,5735839.662233,619997.878454,-106.273181,30U,-0.056187,-0.365683,0.000812,0.039574,-0.000917,4.592966
1447410502257694,1447410502253909,-3785,INS_ALIGNMENT_COMPLETE,51.760576,-1.261246,106.273141,5735839.658399,619997.856495,-106.273141,30U,-0.054210,-0.369321,0.000975,0.039470,-0.000770,4.595914
1447410502570209,1447410502573411,3202,INS_ALIGNMENT_COMPLETE,51.760576,-1.261248,106.273514,5735839.638963,619997.736596,-106.273514,30U,-0.050531,-0.385080,0.000012,0.038873,-0.000151,4.612315
1447410502632702,1447410502633515,813,INS_ALIGNMENT_COMPLETE,51.760576,-1.261248,106.273466,5735839.635381,619997.713414,-106.273466,30U,-0.050014,-0.390575,0.000842,0.038622,0.000001,4.615467
1447410502695202,1447410502693619,-1583,INS_ALIGNMENT_COMPLETE,51.760576,-1.261249,106.273406,5735839.631819,619997.689889,-106.273406,30U,-0.050217,-0.396735,0.001473,0.038312,0.000175,4.618687
1447410502757702,1447410502753723,-3979,INS_ALIGNMENT_COMPLETE,51.760576,-1.261249,106.273290,5735839.628247,619997.665968,-106.273290,30U,-0.049499,-0.403698,0.002257,0.038009,0.000388,4.621994
1447410503070206,1447410503073739,3533,INS_ALIGNMENT_COMPLETE,51.760576,-1.261251,106.272808,5735839.610455,619997.530381,-106.272808,30U,-0.042878,-0.448022,0.002692,0.036793,0.001348,4.640554
1447410503132704,1447410503133758,1054,INS_ALIGNMENT_COMPLETE,51.760576,-1.261251,106.272612,5735839.607236,619997.503246,-106.272612,30U,-0.042547,-0.459218,0.003892,0.036625,0.001529,4.644316
1447410503195206,1447410503193716,-1490,INS_ALIGNMENT_COMPLETE,51.760576,-1.261251,106.221459,5735839.607743,619997.496088,-106.221459,30U,-0.040187,-0.470919,0.004876,0.036453,0.001699,4.648445
1447410503257709,1447410503253819,-3890,INS_ALIGNMENT_COMPLETE,51.760576,-1.261252,106.221190,5735839.604722,619997.467561,-106.221190,30U,-0.037938,-0.482394,0.004130,0.036167,0.001882,4.652406
1447410503570208,1447410503573695,3487,INS_ALIGNMENT_COMPLETE,51.760576,-1.261254,106.220257,5735839.589231,619997.304759,-106.220257,30U,-0.032855,-0.532989,0.001516,0.034537,0.002597,4.676090
1447410503632708,1447410503633761,1053,INS_ALIGNMENT_COMPLETE,51.760576,-1.261255,106.220160,5735839.586601,619997.272604,-106.220160,30U,-0.028706,-0.541097,0.001979,0.034342,0.002722,4.681078
1447410503695209,1447410503693863,-1346,INS_ALIGNMENT_COMPLETE,51.760576,-1.261255,106.220024,5735839.584275,619997.239958,-106.220024,30U,-0.022467,-0.549069,0.002301,0.034200,0.002841,4.686112
1447410503757710,1447410503753966,-3744,INS_ALIGNMENT_COMPLETE,51.760576,-1.261256,106.219850,5735839.582278,619997.206810,-106.219850,30U,-0.017833,-0.557536,0.003809,0.034134,0.002945,4.691170
1447410504070217,1447410504073639,3422,INS_ALIGNMENT_COMPLETE,51.760576,-1.261258,106.216630,5735839.574370,619997.021378,-106.216630,30U,0.001487,-0.605276,0.017678,0.033522,0.004462,4.719869
1447410504132716,1447410504133699,983,INS_ALIGNMENT_COMPLETE,51.760576,-1.261259,106.215527,5735839.573736,619996.984797,-106.215527,30U,0.006433,-0.614800,0.018675,0.033526,0.004893,4.725527
1447410504195216,1447410504193801,-1415,INS_ALIGNMENT_COMPLETE,51.760576,-1.261259,106.202944,5735839.565570,619996.975741,-106.202944,30U,0.007042,-0.622699,0.016121,0.033297,0.005300,4.729703
1447410504257718,1447410504253902,-3816,INS_ALIGNMENT_COMPLETE,51.760576,-1.261260,106.202118,5735839.565096,619996.938159,-106.202118,30U,0.006964,-0.630181,0.012206,0.033313,0.005643,4.735769
1447410504570232,1447410504573569,3337,INS_ALIGNMENT_COMPLETE,51.760576,-1.261263,106.199924,5735839.567047,619996.732161,-106.199924,30U,0.035760,-0.651355,-0.001227,0.034251,0.006672,4.769226
1447410504632720,1447410504633583,863,INS_ALIGNMENT_COMPLETE,51.760576,-1.261263,106.200049,5735839.568256,619996.693040,-106.200049,30U,0.036217,-0.651528,-0.002298,0.034548,0.006586,4.775678
1447410504695221,1447410504693683,-1538,INS_ALIGNMENT_COMPLETE,51.760576,-1.261264,106.200151,5735839.569635,619996.653922,-106.200151,30U,0.042570,-0.650916,-0.001475,0.035046,0.006575,4.782169
1447410504757723,1447410504753784,-3939,INS_ALIGNMENT_COMPLETE,51.760576,-1.261264,106.200233,5735839.571579,619996.614841,-106.200233,30U,0.052958,-0.650227,-0.000565,0.035377,0.006666,4.788541
1447410505070225,1447410505073496,3271,INS_ALIGNMENT_COMPLETE,51.760576,-1.261267,106.199511,5735839.586490,619996.402371,-106.199511,30U,0.074051,-0.685272,0.004491,0.037284,0.007503,4.823858
1447410505132736,1447410505133522,786,INS_ALIGNMENT_COMPLETE,51.760576,-1.261268,106.199132,5735839.590229,619996.360661,-106.199132,30U,0.083953,-0.702721,0.008063,0.037501,0.007920,4.830870
1447410505195228,1447410505193519,-1709,INS_ALIGNMENT_COMPLETE,51.760576,-1.261268,106.188438,5735839.590977,619996.349993,-106.188438,30U,0.092526,-0.721865,0.011688,0.037328,0.008439,4.836252
1447410505570228,1447410505573569,3341,INS_ALIGNMENT_COMPLETE,51.760576,-1.261273,106.184278,5735839.630968,619996.041942,-106.184278,30U,0.158614,-0.898504,0.006289,0.040484,0.011162,4.886950
1447410505632729,1447410505633531,802,INS_ALIGNMENT_COMPLETE,51.760576,-1.261273,106.183870,5735839.639598,619995.987009,-106.183870,30U,0.173791,-0.924888,0.007197,0.040994,0.011508,4.895730
1447410505757744,1447410505753729,-4015,INS_ALIGNMENT_COMPLETE,51.760577,-1.261275,106.183139,5735839.659594,619995.872229,-106.183139,30U,0.203058,-0.980567,0.005587,0.041513,0.012160,4.913677
1447410506070232,1447410506073446,3214,INS_ALIGNMENT_COMPLETE,51.760577,-1.261280,106.183435,5735839.730672,619995.534979,-106.183435,30U,0.289832,-1.110136,0.000094,0.046114,0.011537,4.964963
1447410506132736,1447410506133544,808,INS_ALIGNMENT_COMPLETE,51.760578,-1.261281,106.183468,5735839.746977,619995.467507,-106.183468,30U,0.307395,-1.125026,-0.000300,0.047134,0.011456,4.974933
1447410506257735,1447410506253685,-4050,INS_ALIGNMENT_COMPLETE,51.760578,-1.261282,106.189123,5735839.773966,619995.382179,-106.189123,30U,0.343531,-1.141504,0.009827,0.048056,0.011662,4.995701
1447410506570239,1447410506573556,3317,INS_ALIGNMENT_COMPLETE,51.760579,-1.261287,106.191353,5735839.886334,619995.008865,-106.191353,30U,0.410191,-1.150633,-0.023711,0.052340,0.009934,5.050932
1447410506632739,1447410506633654,915,INS_ALIGNMENT_COMPLETE,51.760579,-1.261288,106.192711,5735839.909431,619994.939491,-106.192711,30U,0.414983,-1.143511,-0.021490,0.052551,0.009482,5.060928
1447410506695237,1447410506693751,-1486,INS_ALIGNMENT_COMPLETE,51.760579,-1.261289,106.193943,5735839.932868,619994.870562,-106.193943,30U,0.422003,-1.135781,-0.019478,0.052564,0.008967,5.070948
1447410506757741,1447410506753849,-3892,INS_ALIGNMENT_COMPLETE,51.760580,-1.261290,106.195003,5735839.956852,619994.802077,-106.195003,30U,0.432940,-1.127785,-0.015025,0.052364,0.008391,5.080838
1447410507070242,1447410507073505,3263,INS_ALIGNMENT_COMPLETE,51.760581,-1.261295,106.199299,5735840.096127,619994.445794,-106.199299,30U,0.481979,-1.078829,-0.013582,0.051182,0.006349,5.129445
1447410507195242,1447410507193536,-1706,INS_ALIGNMENT_COMPLETE,51.760581,-1.261296,106.183164,5735840.110380,619994.390706,-106.183164,30U,0.492241,-1.032821,-0.002625,0.048620,0.006291,5.146292
1447410507257742,1447410507253621,-4121,INS_ALIGNMENT_COMPLETE,51.760581,-1.261297,106.183265,5735840.138752,619994.328331,-106.183265,30U,0.502752,-1.023345,-0.002211,0.048835,0.006307,5.154793
1447410507570246,1447410507573499,3253,INS_ALIGNMENT_COMPLETE,51.760583,-1.261302,106.184502,5735840.297964,619994.002361,-106.184502,30U,0.542514,-0.989596,-0.008062,0.049800,0.005337,5.197370
1447410507632748,1447410507633559,811,INS_ALIGNMENT_COMPLETE,51.760583,-1.261303,106.185146,5735840.329242,619993.942486,-106.185146,30U,0.546339,-0.981076,-0.013881,0.049813,0.005029,5.204849
1447410507695246,1447410507693492,-1754,INS_ALIGNMENT_COMPLETE,51.760583,-1.261304,106.186144,5735840.360641,619993.883097,-106.186144,30U,0.547238,-0.973539,-0.019326,0.049790,0.004686,5.212390
1447410508070251,1447410508073567,3316,INS_ALIGNMENT_COMPLETE,51.760585,-1.261309,106.191571,5735840.566716,619993.518499,-106.191571,30U,0.575785,-0.921602,-0.014149,0.046614,0.003504,5.256216
1447410508132754,1447410508133514,760,INS_ALIGNMENT_COMPLETE,51.760586,-1.261310,106.192327,5735840.600127,619993.462637,-106.192327,30U,0.582917,-0.913287,-0.010207,0.046052,0.003346,5.262577
1447410508195251,1447410508193609,-1642,INS_ALIGNMENT_COMPLETE,51.760585,-1.261309,106.204994,5735840.578483,619993.496089,-106.204994,30U,0.567628,-0.868857,-0.004174,0.043134,0.003712,5.269655
1447410508257752,1447410508253506,-4246,INS_ALIGNMENT_COMPLETE,51.760586,-1.261310,106.205151,5735840.611521,619993.443411,-106.205151,30U,0.575420,-0.860767,-0.001967,0.042748,0.003761,5.275683
1447410508570255,1447410508573587,3332,INS_ALIGNMENT_COMPLETE,51.760587,-1.261314,106.206639,5735840.791732,619993.168434,-106.206639,30U,0.599252,-0.831501,-0.001344,0.041963,0.003651,5.306710
1447410508632756,1447410508633590,834,INS_ALIGNMENT_COMPLETE,51.760588,-1.261314,106.206590,5735840.826937,619993.117870,-106.206590,30U,0.613914,-0.826538,0.002771,0.042456,0.003772,5.312262
1447410508757756,1447410508753493,-4263,INS_ALIGNMENT_COMPLETE,51.760588,-1.261316,106.206049,5735840.899152,619993.017122,-106.206049,30U,0.625330,-0.826475,0.004960,0.043671,0.004392,5.322766
1447410509070259,1447410509073556,3297,INS_ALIGNMENT_COMPLETE,51.760590,-1.261320,106.204084,5735841.103067,619992.740053,-106.204084,30U,0.715391,-0.884892,0.011906,0.043404,0.007312,5.351049
1447410509132760,1447410509133557,797,INS_ALIGNMENT_COMPLETE,51.760591,-1.261321,106.203450,5735841.145105,619992.685265,-106.203450,30U,0.728231,-0.908433,0.009421,0.043065,0.007815,5.356296
1447410509195258,1447410509193650,-1608,INS_ALIGNMENT_COMPLETE,51.760590,-1.261320,106.211555,5735841.116896,619992.713256,-106.211555,30U,0.697673,-0.890578,0.009234,0.039989,0.008728,5.363418
1447410509570261,1447410509573528,3267,INS_ALIGNMENT_COMPLETE,51.760593,-1.261325,106.212971,5735841.401426,619992.349826,-106.212971,30U,0.843916,-0.990537,-0.017799,0.035179,0.011041,5.391314
1447410509632774,1447410509633552,778,INS_ALIGNMENT_COMPLETE,51.760594,-1.261326,106.214127,5735841.451589,619992.288935,-106.214127,30U,0.875084,-0.999819,-0.021335,0.034988,0.010546,5.394566
1447410509695263,1447410509693645,-1618,INS_ALIGNMENT_COMPLETE,51.760594,-1.261327,106.215545,5735841.503258,619992.227209,-106.215545,30U,0.894306,-1.018008,-0.024279,0.034850,0.010001,5.397084
1447410510070267,1447410510073476,3209,INS_ALIGNMENT_COMPLETE,51.760597,-1.261333,106.217003,5735841.856980,619991.806895,-106.217003,30U,1.030588,-1.144537,0.008618,0.033457,0.009017,5.406642
1447410510132767,1447410510133495,728,INS_ALIGNMENT_COMPLETE,51.760598,-1.261334,106.216539,5735841.917733,619991.736166,-106.216539,30U,1.050679,-1.164920,0.006240,0.034503,0.008977,5.407598
1447410510195268,1447410510193497,-1771,INS_ALIGNMENT_COMPLETE,51.760598,-1.261335,106.198565,5735841.902507,619991.685068,-106.198565,30U,1.037630,-1.181387,0.004648,0.034469,0.008250,5.409522
1447410510570277,1447410510573598,3321,INS_ALIGNMENT_COMPLETE,51.760601,-1.261342,106.198118,5735842.308165,619991.202297,-106.198118,30U,1.146586,-1.303889,-0.010089,0.039005,0.004835,5.413873
1447410510695276,1447410510693464,-1812,INS_ALIGNMENT_COMPLETE,51.760603,-1.261344,106.200120,5735842.443409,619991.041250,-106.200120,30U,1.172310,-1.322050,-0.025700,0.040633,0.003015,5.415607
1447410510757772,1447410510753555,-4217,INS_ALIGNMENT_COMPLETE,51.760603,-1.261345,106.202138,5735842.512126,619990.960181,-106.202138,30U,1.180683,-1.325640,-0.042362,0.041043,0.002023,5.416355
1447410511070276,1447410511073545,3269,INS_ALIGNMENT_COMPLETE,51.760607,-1.261351,106.219671,5735842.876448,619990.526871,-106.219671,30U,1.147483,-1.310106,-0.055397,0.035967,-0.006681,5.421866
1447410511132775,1447410511133446,671,INS_ALIGNMENT_COMPLETE,51.760607,-1.261352,106.223674,5735842.943029,619990.447030,-106.223674,30U,1.136212,-1.300008,-0.073033,0.033663,-0.008555,5.423336
1447410511257780,1447410511253627,-4153,INS_ALIGNMENT_COMPLETE,51.760608,-1.261355,106.234228,5735842.996878,619990.277419,-106.234228,30U,1.114303,-1.278471,-0.019545,0.030766,-0.011973,5.426509
1447410511570279,1447410511573667,3388,INS_ALIGNMENT_COMPLETE,51.760611,-1.261361,106.230633,5735843.344149,619989.867779,-106.230633,30U,1.106285,-1.240282,0.007462,0.028964,-0.014159,5.435528
1447410511695280,1447410511693847,-1433,INS_ALIGNMENT_COMPLETE,51.760612,-1.261363,106.229286,5735843.473281,619989.716665,-106.229286,30U,1.108020,-1.226948,0.016340,0.026471,-0.014631,5.438943
1447410511757779,1447410511753937,-3842,INS_ALIGNMENT_COMPLETE,51.760613,-1.261364,106.228110,5735843.538046,619989.641493,-106.228110,30U,1.110477,-1.228726,0.023590,0.025120,-0.014252,5.440458
1447410512070284,1447410512073906,3622,INS_ALIGNMENT_COMPLETE,51.760616,-1.261370,106.219116,5735843.892330,619989.237930,-106.219116,30U,1.172758,-1.244364,0.032061,0.022359,-0.012599,5.450683
1447410512132784,1447410512133514,730,INS_ALIGNMENT_COMPLETE,51.760617,-1.261371,106.217139,5735843.961035,619989.161277,-106.217139,30U,1.177613,-1.256811,0.033192,0.022315,-0.012509,5.452926
1447410512195285,1447410512193604,-1681,INS_ALIGNMENT_COMPLETE,51.760617,-1.261372,106.217618,5735843.976424,619989.066785,-106.217618,30U,1.166107,-1.270835,0.031649,0.021715,-0.012645,5.455606
1447410512570289,1447410512573868,3579,INS_ALIGNMENT_COMPLETE,51.760621,-1.261379,106.210394,5735844.422176,619988.566816,-106.210394,30U,1.237698,-1.311853,0.023993,0.018501,-0.014828,5.474245
1447410512632789,1447410512633862,1073,INS_ALIGNMENT_COMPLETE,51.760622,-1.261380,106.208954,5735844.495027,619988.486367,-106.208954,30U,1.254802,-1.311207,0.022384,0.017791,-0.015159,5.478241
1447410512695288,1447410512693887,-1401,INS_ALIGNMENT_COMPLETE,51.760622,-1.261381,106.207858,5735844.568923,619988.406030,-106.207858,30U,1.271742,-1.307759,0.014789,0.017210,-0.015579,5.482373
1447410512757790,1447410512753976,-3814,INS_ALIGNMENT_COMPLETE,51.760623,-1.261383,106.207013,5735844.643694,619988.325734,-106.207013,30U,1.283156,-1.310959,0.016356,0.016152,-0.016104,5.486929
1447410513070292,1447410513073898,3606,INS_ALIGNMENT_COMPLETE,51.760627,-1.261389,106.197189,5735845.053709,619987.893641,-106.197189,30U,1.356135,-1.313434,0.035760,0.010517,-0.017418,5.520504
1447410513132792,1447410513133986,1194,INS_ALIGNMENT_COMPLETE,51.760628,-1.261390,106.195038,5735845.133600,619987.813092,-106.195038,30U,1.370205,-1.308399,0.033119,0.009397,-0.017059,5.527613
1447410513257793,1447410513253920,-3873,INS_ALIGNMENT_COMPLETE,51.760629,-1.261392,106.192639,5735845.275821,619987.639888,-106.192639,30U,1.386204,-1.306485,0.003898,0.006049,-0.018058,5.543359
1447410513570295,1447410513573916,3621,INS_ALIGNMENT_COMPLETE,51.760633,-1.261398,106.188614,5735845.722097,619987.221250,-106.188614,30U,1.465579,-1.248710,0.033741,0.000533,-0.019462,5.591337
1447410513632796,1447410513633935,1139,INS_ALIGNMENT_COMPLETE,51.760634,-1.261399,106.186471,5735845.808768,619987.144629,-106.186471,30U,1.485427,-1.235602,0.037056,0.000064,-0.019517,5.600983
1447410513757796,1447410513753454,-4342,INS_ALIGNMENT_COMPLETE,51.760635,-1.261401,106.181428,5735845.985886,619986.994072,-106.181428,30U,1.523360,-1.206665,0.047420,-0.001130,-0.018674,5.619743
1447410514070300,1447410514073860,3560,INS_ALIGNMENT_COMPLETE,51.760640,-1.261407,106.169628,5735846.476603,619986.605577,-106.169628,30U,1.605258,-1.135762,0.029610,-0.003575,-0.017935,5.674481
1447410514132801,1447410514133808,1007,INS_ALIGNMENT_COMPLETE,51.760641,-1.261408,106.167940,5735846.571602,619986.535493,-106.167940,30U,1.616754,-1.125264,0.027893,-0.003938,-0.017729,5.685400
1447410514195303,1447410514193895,-1408,INS_ALIGNMENT_COMPLETE,51.760642,-1.261408,106.187497,5735846.693998,619986.489821,-106.187497,30U,1.622879,-1.117637,0.034152,-0.004381,-0.017706,5.697613
1447410514257801,1447410514253982,-3819,INS_ALIGNMENT_COMPLETE,51.760643,-1.261409,106.185199,5735846.790195,619986.420876,-106.185199,30U,1.638686,-1.102946,0.042846,-0.005007,-0.017637,5.709414
1447410514570306,1447410514573975,3669,INS_ALIGNMENT_COMPLETE,51.760648,-1.261414,106.171661,5735847.321973,619986.073803,-106.171661,30U,1.731127,-0.998870,0.040347,-0.004194,-0.016243,5.773646
1447410514632808,1447410514634032,1224,INS_ALIGNMENT_COMPLETE,51.760649,-1.261415,106.169243,5735847.424931,619986.012125,-106.169243,30U,1.749365,-0.975738,0.040695,-0.004080,-0.015896,5.785653
1447410514757807,1447410514754044,-3763,INS_ALIGNMENT_COMPLETE,51.760650,-1.261417,106.164601,5735847.633787,619985.892067,-106.164601,30U,1.777455,-0.945229,0.034738,-0.004442,-0.014869,5.809169
1447410515070308,1447410515074034,3726,INS_ALIGNMENT_COMPLETE,51.760656,-1.261421,106.155242,5735848.208501,619985.594890,-106.155242,30U,1.851228,-0.837771,0.029793,-0.005660,-0.013293,5.867369
1447410515132809,1447410515134097,1288,INS_ALIGNMENT_COMPLETE,51.760657,-1.261422,106.153530,5735848.318531,619985.542464,-106.153530,30U,1.857506,-0.821538,0.022389,-0.005790,-0.012691,5.877426
1447410515195311,1447410515193941,-1370,INS_ALIGNMENT_COMPLETE,51.760658,-1.261422,106.181433,5735848.483220,619985.522248,-106.181433,30U,1.870982,-0.801541,0.006876,-0.006312,-0.012443,5.887050
1447410515570316,1447410515574015,3699,INS_ALIGNMENT_COMPLETE,51.760665,-1.261426,106.172744,5735849.199166,619985.223086,-106.172744,30U,1.933142,-0.675299,0.025114,-0.006692,-0.011411,5.942512
1447410515632813,1447410515633821,1008,INS_ALIGNMENT_COMPLETE,51.760666,-1.261426,106.170963,5735849.314545,619985.180507,-106.170963,30U,1.945395,-0.653642,0.034842,-0.004931,-0.011127,5.950023
1447410515695315,1447410515693906,-1409,INS_ALIGNMENT_COMPLETE,51.760667,-1.261427,106.168741,5735849.430668,619985.138971,-106.168741,30U,1.954638,-0.640820,0.038198,-0.003517,-0.010886,5.957159
1447410516070317,1447410516073996,3679,INS_ALIGNMENT_COMPLETE,51.760673,-1.261430,106.156292,5735850.168323,619984.887441,-106.156292,30U,1.971280,-0.569022,0.024198,-0.008256,-0.007996,5.995978
1447410516132817,1447410516134081,1264,INS_ALIGNMENT_COMPLETE,51.760675,-1.261431,106.242589,5735850.313704,619984.829144,-106.242589,30U,1.980246,-0.555541,0.019831,-0.007840,-0.008243,6.001245
1447410516195320,1447410516193930,-1390,INS_ALIGNMENT_COMPLETE,51.760676,-1.261432,106.241715,5735850.431770,619984.793419,-106.241715,30U,1.982514,-0.542817,0.009306,-0.007129,-0.008654,6.006345
1447410516257820,1447410516253881,-3939,INS_ALIGNMENT_COMPLETE,51.760677,-1.261432,106.241251,5735850.549949,619984.758212,-106.241251,30U,1.984461,-0.537655,0.008793,-0.006436,-0.009116,6.010942
1447410516570321,1447410516573865,3544,INS_ALIGNMENT_COMPLETE,51.760683,-1.261435,106.236144,5735851.180714,619984.576046,-106.236144,30U,1.989035,-0.496491,0.013856,-0.008950,-0.008832,6.031165
1447410516695322,1447410516694033,-1289,INS_ALIGNMENT_COMPLETE,51.760685,-1.261435,106.234081,5735851.418149,619984.512494,-106.234081,30U,1.991857,-0.473846,0.015955,-0.009359,-0.009191,6.036295
1447410516757823,1447410516754117,-3706,INS_ALIGNMENT_COMPLETE,51.760686,-1.261436,106.233361,5735851.536977,619984.481657,-106.233361,30U,1.993462,-0.460151,0.009939,-0.008785,-0.009598,6.038328
1447410517070325,1447410517074154,3829,INS_ALIGNMENT_COMPLETE,51.760692,-1.261438,106.226126,5735852.171450,619984.320944,-106.226126,30U,1.982489,-0.470674,-0.009578,-0.008432,-0.009505,6.045609
1447410517132828,1447410517134238,1410,INS_ALIGNMENT_COMPLETE,51.760693,-1.261439,106.297896,5735852.327230,619984.255589,-106.297896,30U,1.981725,-0.486414,-0.029817,-0.010396,-0.010830,6.046854
1447410517257827,1447410517254063,-3764,INS_ALIGNMENT_COMPLETE,51.760695,-1.261440,106.299355,5735852.564460,619984.193041,-106.299355,30U,1.999645,-0.453085,0.016126,-0.014113,-0.012820,6.049068
1447410517570331,1447410517573814,3483,INS_ALIGNMENT_COMPLETE,51.760701,-1.261442,106.286933,5735853.206326,619984.034196,-106.286933,30U,2.037184,-0.446267,0.024174,-0.018029,-0.013575,6.054651
1447410517632832,1447410517633896,1064,INS_ALIGNMENT_COMPLETE,51.760702,-1.261442,106.285725,5735853.328121,619984.004623,-106.285725,30U,2.045064,-0.443295,0.018108,-0.018995,-0.014395,6.055314
1447410517695332,1447410517693979,-1353,INS_ALIGNMENT_COMPLETE,51.760703,-1.261443,106.284740,5735853.450278,619983.975058,-106.284740,30U,2.049675,-0.446031,0.015935,-0.019925,-0.015092,6.056003
1447410518070334,1447410518074022,3688,INS_ALIGNMENT_COMPLETE,51.760710,-1.261445,106.275708,5735854.229287,619983.790355,-106.275708,30U,2.065414,-0.431839,0.026512,-0.018168,-0.012359,6.062112
1447410518195339,1447410518194187,-1152,INS_ALIGNMENT_COMPLETE,51.760713,-1.261446,106.349628,5735854.496745,619983.686056,-106.349628,30U,2.059416,-0.425060,0.028034,-0.015230,-0.009472,6.065088
1447410518257839,1447410518253830,-4009,INS_ALIGNMENT_COMPLETE,51.760714,-1.261447,106.347801,5735854.619569,619983.657947,-106.347801,30U,2.057470,-0.415388,0.032540,-0.012636,-0.007076,6.066086
1447410518570339,1447410518573755,3416,INS_ALIGNMENT_COMPLETE,51.760720,-1.261449,106.335700,5735855.278023,619983.505748,-106.335700,30U,2.092415,-0.438551,0.055147,-0.008470,0.002860,6.072081
1447410518632838,1447410518633780,942,INS_ALIGNMENT_COMPLETE,51.760721,-1.261449,106.332344,5735855.403334,619983.476582,-106.332344,30U,2.107295,-0.433230,0.056082,-0.009255,0.004361,6.072881
1447410518695339,1447410518693861,-1478,INS_ALIGNMENT_COMPLETE,51.760722,-1.261449,106.329016,5735855.529553,619983.447603,-106.329016,30U,2.123201,-0.433021,0.055562,-0.010052,0.005926,6.073737
1447410519070342,1447410519073968,3626,INS_ALIGNMENT_COMPLETE,51.760729,-1.261452,106.311032,5735856.355227,619983.257835,-106.311032,30U,2.246328,-0.459829,0.021988,-0.018571,0.009304,6.077853
1447410519132845,1447410519134049,1204,INS_ALIGNMENT_COMPLETE,51.760731,-1.261453,106.378390,5735856.509113,619983.177427,-106.378390,30U,2.262845,-0.464922,0.007046,-0.020436,0.009355,6.078947
1447410519195344,1447410519193850,-1494,INS_ALIGNMENT_COMPLETE,51.760732,-1.261453,106.378556,5735856.644540,619983.146465,-106.378556,30U,2.275963,-0.458569,-0.011504,-0.020878,0.009580,6.079509
1447410519257846,1447410519253902,-3944,INS_ALIGNMENT_COMPLETE,51.760733,-1.261454,106.379646,5735856.780780,619983.116105,-106.379646,30U,2.288787,-0.444165,-0.025471,-0.019463,0.009698,6.079950
1447410519632849,1447410519633853,1004,INS_ALIGNMENT_COMPLETE,51.760741,-1.261456,106.408425,5735857.655314,619982.929367,-106.408425,30U,2.338596,-0.469808,-0.024201,-0.006957,-0.001587,6.080500
1447410519695350,1447410519693934,-1416,INS_ALIGNMENT_COMPLETE,51.760742,-1.261457,106.409365,5735857.795115,619982.897525,-106.409365,30U,2.345250,-0.480563,-0.012358,-0.007908,-0.001921,6.080567
1447410519757849,1447410519754014,-3835,INS_ALIGNMENT_COMPLETE,51.760744,-1.261457,106.410039,5735857.935432,619982.865377,-106.410039,30U,2.356760,-0.477244,-0.011726,-0.008355,-0.002119,6.080572
1447410520070351,1447410520073909,3558,INS_ALIGNMENT_COMPLETE,51.760751,-1.261459,106.409313,5735858.692109,619982.710621,-106.409313,30U,2.419629,-0.490350,0.070448,-0.007707,-0.001477,6.081295
1447410520195355,1447410520193942,-1413,INS_ALIGNMENT_COMPLETE,51.760753,-1.261460,106.401981,5735858.982246,619982.644494,-106.401981,30U,2.443511,-0.486980,0.036833,-0.009517,0.000293,6.080784
1447410520257855,1447410520254022,-3833,INS_ALIGNMENT_COMPLETE,51.760754,-1.261460,106.400680,5735859.128374,619982.612080,-106.400680,30U,2.452393,-0.480891,0.006195,-0.011133,-0.000074,6.080037
1447410520570356,1447410520573800,3444,INS_ALIGNMENT_COMPLETE,51.760762,-1.261463,106.404065,5735859.915692,619982.438370,-106.404065,30U,2.495415,-0.491052,0.016476,-0.009972,-0.002772,6.077754
1447410520632858,1447410520633822,964,INS_ALIGNMENT_COMPLETE,51.760763,-1.261463,106.403175,5735860.064698,619982.404909,-106.403175,30U,2.498284,-0.506402,0.014830,-0.009875,-0.003068,6.077376
1447410520757856,1447410520753889,-3967,INS_ALIGNMENT_COMPLETE,51.760766,-1.261464,106.401304,5735860.363421,619982.335840,-106.401304,30U,2.506386,-0.520588,0.007225,-0.013079,-0.004401,6.076993
1447410521070357,1447410521073747,3390,INS_ALIGNMENT_COMPLETE,51.760773,-1.261466,106.403913,5735861.161566,619982.154402,-106.403913,30U,2.496513,-0.499271,-0.014536,-0.017076,-0.011181,6.073856
1447410521132858,1447410521133771,913,INS_ALIGNMENT_COMPLETE,51.760774,-1.261467,106.404368,5735861.310306,619982.120943,-106.404368,30U,2.487983,-0.499197,-0.000381,-0.016914,-0.012649,6.073227
1447410521195358,1447410521193850,-1508,INS_ALIGNMENT_COMPLETE,51.760776,-1.261467,106.404008,5735861.458489,619982.087443,-106.404008,30U,2.477070,-0.500162,0.013142,-0.017141,-0.013688,6.072731
1447410521257861,1447410521253929,-3932,INS_ALIGNMENT_COMPLETE,51.760777,-1.261468,106.402788,5735861.605937,619982.053807,-106.402788,30U,2.464603,-0.502281,0.025150,-0.017680,-0.014114,6.072283
1447410521570360,1447410521573592,3232,INS_ALIGNMENT_COMPLETE,51.760784,-1.261470,106.397683,5735862.379922,619981.876031,-106.397683,30U,2.395537,-0.484642,0.021875,-0.019467,-0.016231,6.069478
1447410521695360,1447410521693724,-1636,INS_ALIGNMENT_COMPLETE,51.760786,-1.261471,106.394511,5735862.663624,619981.810931,-106.394511,30U,2.361136,-0.488577,0.032018,-0.019071,-0.014560,6.068502
1447410521757860,1447410521753802,-4058,INS_ALIGNMENT_COMPLETE,51.760788,-1.261471,106.392306,5735862.804169,619981.778254,-106.392306,30U,2.349503,-0.489155,0.042286,-0.018991,-0.013754,6.067943
1447410522070361,1447410522073773,3412,INS_ALIGNMENT_COMPLETE,51.760794,-1.261473,106.416255,5735863.507175,619981.643657,-106.416255,30U,2.277495,-0.483771,0.050949,-0.017600,-0.009940,6.065197
1447410522132861,1447410522133717,856,INS_ALIGNMENT_COMPLETE,51.760795,-1.261473,106.412939,5735863.642830,619981.611419,-106.412939,30U,2.269157,-0.482569,0.059559,-0.018192,-0.009565,6.064796
1447410522195362,1447410522193740,-1622,INS_ALIGNMENT_COMPLETE,51.760796,-1.261474,106.409215,5735863.777849,619981.579291,-106.409215,30U,2.256639,-0.481422,0.062110,-0.020262,-0.008836,6.064257
1447410522257862,1447410522253818,-4044,INS_ALIGNMENT_COMPLETE,51.760798,-1.261474,106.405670,5735863.912256,619981.547172,-106.405670,30U,2.249126,-0.482519,0.057148,-0.022727,-0.008164,6.063594
1447410522570364,1447410522573815,3451,INS_ALIGNMENT_COMPLETE,51.760804,-1.261476,106.391656,5735864.621143,619981.379451,-106.391656,30U,2.208885,-0.448416,0.038231,-0.023171,-0.009230,6.060350
1447410522632864,1447410522633892,1028,INS_ALIGNMENT_COMPLETE,51.760805,-1.261477,106.389850,5735864.752607,619981.349446,-106.389850,30U,2.196850,-0.448645,0.024226,-0.021973,-0.009553,6.059309
1447410522695365,1447410522693970,-1395,INS_ALIGNMENT_COMPLETE,51.760806,-1.261477,106.388576,5735864.883318,619981.319182,-106.388576,30U,2.183579,-0.456781,0.017878,-0.021065,-0.009982,6.058086
1447410522757865,1447410522754047,-3818,INS_ALIGNMENT_COMPLETE,51.760808,-1.261477,106.388027,5735865.012989,619981.288346,-106.388027,30U,2.163443,-0.467696,0.000818,-0.020319,-0.010759,6.056721
1447410523070369,1447410523073714,3345,INS_ALIGNMENT_COMPLETE,51.760813,-1.261480,106.445466,5735865.638283,619981.081916,-106.445466,30U,2.079096,-0.465197,0.016244,-0.019295,-0.016963,6.044884
1447410523132870,1447410523133697,827,INS_ALIGNMENT_COMPLETE,51.760814,-1.261481,106.443872,5735865.761763,619981.051045,-106.443872,30U,2.062344,-0.465999,0.038172,-0.018142,-0.017515,6.041035
1447410523195368,1447410523193774,-1594,INS_ALIGNMENT_COMPLETE,51.760816,-1.261481,106.441130,5735865.884359,619981.020127,-106.441130,30U,2.047060,-0.469893,0.046692,-0.016984,-0.017433,6.036676
1447410523257870,1447410523253681,-4189,INS_ALIGNMENT_COMPLETE,51.760817,-1.261481,106.438567,5735866.005750,619980.988730,-106.438567,30U,2.024059,-0.482765,0.040800,-0.016848,-0.017852,6.031877
1447410523570371,1447410523573817,3446,INS_ALIGNMENT_COMPLETE,51.760822,-1.261484,106.426845,5735866.625387,619980.813989,-106.426845,30U,1.879166,-0.509538,0.066066,-0.016792,-0.019678,5.996039
1447410523632875,1447410523633636,761,INS_ALIGNMENT_COMPLETE,51.760823,-1.261484,106.422748,5735866.736469,619980.780408,-106.422748,30U,1.850650,-0.520936,0.069369,-0.015971,-0.019415,5.987361
1447410523695375,1447410523693712,-1663,INS_ALIGNMENT_COMPLETE,51.760824,-1.261485,106.418633,5735866.845953,619980.746444,-106.418633,30U,1.824922,-0.524847,0.066679,-0.015130,-0.019298,5.978065
1447410523757874,1447410523753788,-4086,INS_ALIGNMENT_COMPLETE,51.760825,-1.261485,106.414886,5735866.953863,619980.712121,-106.414886,30U,1.798792,-0.535909,0.058579,-0.015219,-0.019360,5.968223
1447410524070378,1447410524073813,3435,INS_ALIGNMENT_COMPLETE,51.760830,-1.261488,106.397828,5735867.501331,619980.516497,-106.397828,30U,1.655632,-0.591701,0.050668,-0.015303,-0.021280,5.911098
1447410524132878,1447410524133889,1011,INS_ALIGNMENT_COMPLETE,51.760831,-1.261490,106.430997,5735867.570843,619980.365833,-106.430997,30U,1.626204,-0.631369,0.055519,-0.015227,-0.021853,5.902261
1447410524195383,1447410524193965,-1418,INS_ALIGNMENT_COMPLETE,51.760832,-1.261490,106.427466,5735867.666495,619980.325061,-106.427466,30U,1.594451,-0.652311,0.062068,-0.015527,-0.022124,5.889988
1447410524257883,1447410524254041,-3842,INS_ALIGNMENT_COMPLETE,51.760833,-1.261491,106.423576,5735867.760257,619980.283027,-106.423576,30U,1.564236,-0.673287,0.066359,-0.015586,-0.022335,5.877612
1447410524570385,1447410524573508,3123,INS_ALIGNMENT_COMPLETE,51.760837,-1.261494,106.403041,5735868.234780,619980.049322,-106.403041,30U,1.430906,-0.717189,0.073109,-0.014806,-0.023737,5.806877
1447410524632883,1447410524633581,698,INS_ALIGNMENT_COMPLETE,51.760838,-1.261495,106.398805,5735868.318524,619980.003803,-106.398805,30U,1.396370,-0.734435,0.068691,-0.013630,-0.023385,5.792762
1447410524695384,1447410524693656,-1728,INS_ALIGNMENT_COMPLETE,51.760838,-1.261496,106.394586,5735868.400278,619979.957207,-106.394586,30U,1.366467,-0.752607,0.073179,-0.012489,-0.023115,5.778575
1447410524757887,1447410524753671,-4216,INS_ALIGNMENT_COMPLETE,51.760839,-1.261496,106.389877,5735868.480289,619979.909788,-106.389877,30U,1.337880,-0.762743,0.083832,-0.011872,-0.022854,5.764185
1447410525070392,1447410525073629,3237,INS_ALIGNMENT_COMPLETE,51.760842,-1.261502,106.427451,5735868.809632,619979.489935,-106.427451,30U,1.139742,-0.826907,0.041036,-0.008633,-0.022080,5.690112
1447410525132889,1447410525133677,788,INS_ALIGNMENT_COMPLETE,51.760843,-1.261503,106.424921,5735868.875889,619979.438923,-106.424921,30U,1.110602,-0.819586,0.043004,-0.006972,-0.021494,5.675305
1447410525195390,1447410525193522,-1868,INS_ALIGNMENT_COMPLETE,51.760843,-1.261504,106.422339,5735868.940458,619979.388352,-106.422339,30U,1.081300,-0.815165,0.043936,-0.005618,-0.021230,5.660213
1447410525257890,1447410525253574,-4316,INS_ALIGNMENT_COMPLETE,51.760844,-1.261504,106.419527,5735869.003104,619979.337895,-106.419527,30U,1.045883,-0.818213,0.050096,-0.004261,-0.021200,5.645059
1447410525570397,1447410525573503,3106,INS_ALIGNMENT_COMPLETE,51.760847,-1.261508,106.396791,5735869.305488,619979.062375,-106.396791,30U,0.902704,-0.848262,0.069933,0.001810,-0.018490,5.567481
1447410525632895,1447410525633533,638,INS_ALIGNMENT_COMPLETE,51.760847,-1.261509,106.392856,5735869.357882,619979.010210,-106.392856,30U,0.885665,-0.849474,0.061835,0.002756,-0.018056,5.552759
1447410525695395,1447410525693608,-1787,INS_ALIGNMENT_COMPLETE,51.760848,-1.261510,106.389262,5735869.409243,619978.957790,-106.389262,30U,0.868477,-0.857709,0.058449,0.004028,-0.017552,5.537988
1447410525757897,1447410525753682,-4215,INS_ALIGNMENT_COMPLETE,51.760848,-1.261510,106.385809,5735869.459580,619978.904848,-106.385809,30U,0.851940,-0.865950,0.056941,0.005780,-0.017104,5.523173
1447410526070400,1447410526073725,3325,INS_ALIGNMENT_COMPLETE,51.760850,-1.261515,106.364129,5735869.707272,619978.613655,-106.364129,30U,0.741876,-0.908415,0.069026,0.009063,-0.014856,5.440753
1447410526132903,1447410526133773,870,INS_ALIGNMENT_COMPLETE,51.760854,-1.261512,106.494995,5735870.118276,619978.763016,-106.494995,30U,0.764505,-0.895725,0.068691,0.008905,-0.014079,5.422439
1447410526195402,1447410526193847,-1555,INS_ALIGNMENT_COMPLETE,51.760854,-1.261513,106.490502,5735870.162205,619978.707679,-106.490502,30U,0.743727,-0.914216,0.083855,0.008985,-0.013271,5.406189
1447410526257904,1447410526253590,-4314,INS_ALIGNMENT_COMPLETE,51.760855,-1.261514,106.485028,5735870.204964,619978.651401,-106.485028,30U,0.725926,-0.925821,0.097073,0.009249,-0.011941,5.390222
1447410526570420,1447410526573680,3260,INS_ALIGNMENT_COMPLETE,51.760857,-1.261518,106.458584,5735870.417803,619978.350222,-106.458584,30U,0.629579,-0.956320,0.071942,0.014073,-0.004881,5.301829
1447410526632907,1447410526633754,847,INS_ALIGNMENT_COMPLETE,51.760857,-1.261519,106.454147,5735870.453349,619978.291418,-106.454147,30U,0.604278,-0.973224,0.076172,0.014582,-0.004090,5.286600
1447410526695408,1447410526693500,-1908,INS_ALIGNMENT_COMPLETE,51.760857,-1.261520,106.449595,5735870.487790,619978.232111,-106.449595,30U,0.593315,-0.973047,0.073334,0.015178,-0.003338,5.271500
1447410526757907,1447410526753495,-4412,INS_ALIGNMENT_COMPLETE,51.760858,-1.261521,106.445663,5735870.521975,619978.173315,-106.445663,30U,0.592750,-0.959921,0.061089,0.016155,-0.002906,5.255814
1447410527070414,1447410527073420,3006,INS_ALIGNMENT_COMPLETE,51.760859,-1.261525,106.423316,5735870.684737,619977.849411,-106.423316,30U,0.506350,-1.018059,0.056600,0.016162,0.000285,5.177409
1447410527132912,1447410527133492,580,INS_ALIGNMENT_COMPLETE,51.760859,-1.261526,106.496449,5735870.672733,619977.769566,-106.496449,30U,0.488964,-1.029547,0.050103,0.015693,0.000421,5.164738
1447410527195413,1447410527193542,-1871,INS_ALIGNMENT_COMPLETE,51.760859,-1.261527,106.493348,5735870.699743,619977.706833,-106.493348,30U,0.459814,-1.040354,0.052835,0.015220,0.000975,5.151150
1447410527257914,1447410527253571,-4343,INS_ALIGNMENT_COMPLETE,51.760860,-1.261528,106.490096,5735870.724884,619977.643488,-106.490096,30U,0.430288,-1.049631,0.054550,0.015068,0.001809,5.138263
1447410527570417,1447410527573498,3081,INS_ALIGNMENT_COMPLETE,51.760861,-1.261533,106.487865,5735870.850224,619977.311548,-106.487865,30U,0.357218,-1.031112,-0.005589,0.020131,-0.002384,5.070395
1447410527632918,1447410527633571,653,INS_ALIGNMENT_COMPLETE,51.760861,-1.261534,106.488033,5735870.869749,619977.249332,-106.488033,30U,0.347414,-1.025014,-0.000152,0.021845,-0.003387,5.059276
1447410527695419,1447410527693566,-1853,INS_ALIGNMENT_COMPLETE,51.760861,-1.261535,106.487941,5735870.889396,619977.187887,-106.487941,30U,0.357497,-1.006439,0.000323,0.023274,-0.004267,5.047685
1447410528132920,1447410528133539,619,INS_ALIGNMENT_COMPLETE,51.760863,-1.261540,106.638548,5735871.068132,619976.794309,-106.638548,30U,0.256282,-0.991370,0.054143,0.029964,-0.008479,4.967127
1447410528195422,1447410528193611,-1811,INS_ALIGNMENT_COMPLETE,51.760863,-1.261541,106.635601,5735871.081273,619976.734324,-106.635601,30U,0.227565,-0.998042,0.042469,0.029221,-0.008429,4.956362
1447410528257922,1447410528253683,-4239,INS_ALIGNMENT_COMPLETE,51.760863,-1.261542,106.633403,5735871.092520,619976.673915,-106.633403,30U,0.198276,-1.005988,0.031379,0.028347,-0.008604,4.946492
1447410528570426,1447410528573798,3372,INS_ALIGNMENT_COMPLETE,51.760864,-1.261547,106.618646,5735871.147385,619976.346443,-106.618646,30U,0.177319,-1.036237,0.045233,0.028182,-0.008229,4.896957
1447410528632925,1447410528633870,945,INS_ALIGNMENT_COMPLETE,51.760864,-1.261548,106.616067,5735871.155849,619976.283839,-106.616067,30U,0.155325,-1.043479,0.042018,0.028654,-0.008186,4.888188
1447410528757928,1447410528753882,-4046,INS_ALIGNMENT_COMPLETE,51.760864,-1.261550,106.611323,5735871.169935,619976.157961,-106.611323,30U,0.136609,-1.046361,0.037216,0.027899,-0.008243,4.871205
1447410529070429,1447410529073439,3010,INS_ALIGNMENT_COMPLETE,51.760864,-1.261554,106.599927,5735871.201961,619975.820210,-106.599927,30U,0.087972,-1.068610,0.040669,0.028452,-0.008889,4.824549
1447410529132930,1447410529133462,532,INS_SOLUTION_GOOD,51.760864,-1.261554,106.718486,5735871.199247,619975.855862,-106.718486,30U,0.083428,-1.061148,0.031745,0.028725,-0.009126,4.816466
1447410529195432,1447410529193533,-1899,INS_SOLUTION_GOOD,51.760864,-1.261555,106.716524,5735871.202812,619975.792240,-106.716524,30U,0.084675,-1.056995,0.034130,0.028469,-0.009282,4.808211
1447410529632935,1447410529633614,679,INS_SOLUTION_GOOD,51.760865,-1.261561,106.707662,5735871.214233,619975.336531,-106.707662,30U,0.052508,-0.998812,-0.009220,0.029314,-0.011042,4.749477
1447410529695436,1447410529693685,-1751,INS_SOLUTION_GOOD,51.760865,-1.261562,106.707933,5735871.215201,619975.276907,-106.707933,30U,0.025613,-0.987739,0.001350,0.031955,-0.011608,4.742218
1447410529757937,1447410529753756,-4181,INS_SOLUTION_GOOD,51.760865,-1.261563,106.707522,5735871.214600,619975.218016,-106.707522,30U,0.003530,-0.975678,0.012249,0.034538,-0.011960,4.735487
1447410530132938,1447410530134039,1101,INS_SOLUTION_GOOD,51.760865,-1.261568,106.699103,5735871.199404,619974.860821,-106.699103,30U,-0.040352,-0.916000,0.020479,0.034626,-0.012350,4.693351
1447410530195441,1447410530194110,-1331,INS_SOLUTION_GOOD,51.760865,-1.261569,106.864410,5735871.232919,619974.842089,-106.864410,30U,-0.035824,-0.899183,0.018477,0.034851,-0.012478,4.684751
1447410530257942,1447410530254147,-3795,INS_SOLUTION_GOOD,51.760865,-1.261569,106.863221,5735871.229611,619974.788447,-106.863221,30U,-0.032795,-0.891121,0.020967,0.035330,-0.012612,4.678659
1447410530632942,1447410530634005,1063,INS_SOLUTION_GOOD,51.760865,-1.261574,106.856136,5735871.201481,619974.464130,-106.856136,30U,-0.065351,-0.817801,0.012890,0.036788,-0.012043,4.641857
1447410530695444,1447410530694075,-1369,INS_SOLUTION_GOOD,51.760865,-1.261575,106.855254,5735871.196356,619974.415490,-106.855254,30U,-0.067211,-0.807114,0.016603,0.037123,-0.011948,4.636476
1447410530757945,1447410530754145,-3800,INS_SOLUTION_GOOD,51.760865,-1.261576,106.854184,5735871.191017,619974.367507,-106.854184,30U,-0.073416,-0.796435,0.018743,0.037439,-0.011814,4.631280
1447410531070448,1447410531073873,3425,INS_SOLUTION_GOOD,51.760864,-1.261579,106.845036,5735871.156460,619974.120438,-106.845036,30U,-0.094715,-0.758320,0.036213,0.037341,-0.009638,4.605999
1447410531195447,1447410531193947,-1500,INS_SOLUTION_GOOD,51.760865,-1.261579,106.956457,5735871.173380,619974.100779,-106.956457,30U,-0.102447,-0.744678,0.029287,0.037530,-0.008553,4.595943
1447410531257948,1447410531253944,-4004,INS_SOLUTION_GOOD,51.760864,-1.261580,106.954708,5735871.166102,619974.056342,-106.954708,30U,-0.104316,-0.742387,0.028893,0.037830,-0.008079,4.591593
1447410531570451,1447410531573967,3516,INS_SOLUTION_GOOD,51.760864,-1.261583,106.946106,5735871.125935,619973.822895,-106.946106,30U,-0.121457,-0.723988,0.026343,0.038661,-0.005946,4.568356
1447410531695453,1447410531693321,-2132,INS_SOLUTION_GOOD,51.760864,-1.261585,106.942847,5735871.109038,619973.736461,-106.942847,30U,-0.124370,-0.724112,0.028362,0.038309,-0.005211,4.560594
1447410531757954,1447410531753390,-4564,INS_SOLUTION_GOOD,51.760864,-1.261585,106.941110,5735871.100501,619973.693203,-106.941110,30U,-0.125953,-0.724569,0.029653,0.038091,-0.004812,4.556692
1447410532070457,1447410532073758,3301,INS_SOLUTION_GOOD,51.760864,-1.261589,106.932145,5735871.052289,619973.462234,-106.932145,30U,-0.137889,-0.727004,0.024450,0.037997,-0.002793,4.537560
1447410532132956,1447410532133827,871,INS_SOLUTION_GOOD,51.760865,-1.261588,107.143251,5735871.221860,619973.482853,-107.143251,30U,-0.126698,-0.713011,0.021710,0.038422,-0.002385,4.530467
1447410532257956,1447410532253965,-3991,INS_SOLUTION_GOOD,51.760865,-1.261590,107.140666,5735871.204283,619973.397868,-107.140666,30U,-0.133830,-0.709374,0.019895,0.039254,-0.001614,4.523915
1447410532632960,1447410532634017,1057,INS_SOLUTION_GOOD,51.760864,-1.261593,107.134930,5735871.146378,619973.143239,-107.134930,30U,-0.131416,-0.624450,0.014300,0.039612,0.000025,4.505991
1447410532695462,1447410532694086,-1376,INS_SOLUTION_GOOD,51.760864,-1.261594,107.134093,5735871.137655,619973.106438,-107.134093,30U,-0.130064,-0.609479,0.013107,0.039647,0.000227,4.503516
1447410532757962,1447410532754155,-3807,INS_SOLUTION_GOOD,51.760864,-1.261594,107.133381,5735871.129035,619973.070497,-107.133381,30U,-0.128959,-0.595006,0.011323,0.039727,0.000310,4.501193
1447410533070465,1447410533074016,3551,INS_SOLUTION_GOOD,51.760864,-1.261597,107.129417,5735871.085572,619972.892413,-107.129417,30U,-0.122292,-0.527106,0.011235,0.040795,0.000896,4.490566
1447410533195465,1447410533194084,-1381,INS_SOLUTION_GOOD,51.760865,-1.261598,107.319139,5735871.179545,619972.820478,-107.319139,30U,-0.114418,-0.500028,0.006577,0.041120,0.001200,4.486222
1447410533257965,1447410533254153,-3812,INS_SOLUTION_GOOD,51.760865,-1.261598,107.318831,5735871.172119,619972.791014,-107.318831,30U,-0.109421,-0.488017,0.004512,0.041283,0.001290,4.484801
1447410533570467,1447410533573929,3462,INS_SOLUTION_GOOD,51.760864,-1.261600,107.317505,5735871.135541,619972.645797,-107.317505,30U,-0.097982,-0.427359,0.002576,0.042045,0.001650,4.478108
1447410533632971,1447410533633861,890,INS_SOLUTION_GOOD,51.760864,-1.261601,107.317350,5735871.129160,619972.620578,-107.317350,30U,-0.095216,-0.418389,0.002776,0.042090,0.001710,4.477004
1447410533695472,1447410533693813,-1659,INS_SOLUTION_GOOD,51.760864,-1.261601,107.317177,5735871.122866,619972.595888,-107.317177,30U,-0.095447,-0.409735,0.003143,0.042158,0.001791,4.475941
1447410534070472,1447410534073884,3412,INS_SOLUTION_GOOD,51.760864,-1.261603,107.315804,5735871.084408,619972.448144,-107.315804,30U,-0.088686,-0.374922,0.003161,0.042122,0.002236,4.470490
1447410534132972,1447410534133951,979,INS_SOLUTION_GOOD,51.760865,-1.261602,107.384026,5735871.175959,619972.551826,-107.384026,30U,-0.083987,-0.360245,0.001216,0.042137,0.002338,4.469741
1447410534195473,1447410534193805,-1668,INS_SOLUTION_GOOD,51.760865,-1.261602,107.383984,5735871.170475,619972.530606,-107.383984,30U,-0.081523,-0.351373,-0.000374,0.042118,0.002385,4.469121
1447410534257973,1447410534253872,-4101,INS_SOLUTION_GOOD,51.760865,-1.261602,107.384048,5735871.165184,619972.509939,-107.384048,30U,-0.078141,-0.341453,-0.001858,0.042022,0.002401,4.468486
1447410534570479,1447410534573881,3402,INS_SOLUTION_GOOD,51.760865,-1.261604,107.384233,5735871.139469,619972.410025,-107.384233,30U,-0.066570,-0.289004,-0.000935,0.041766,0.002618,4.465783
1447410534695479,1447410534694016,-1463,INS_SOLUTION_GOOD,51.760865,-1.261604,107.384433,5735871.131140,619972.376626,-107.384433,30U,-0.059751,-0.270533,-0.002144,0.041717,0.002646,4.464811
1447410534757979,1447410534754083,-3896,INS_SOLUTION_GOOD,51.760864,-1.261605,107.384577,5735871.127199,619972.360801,-107.384577,30U,-0.059126,-0.259671,-0.002781,0.041676,0.002648,4.464402
1447410535070483,1447410535074059,3576,INS_SOLUTION_GOOD,51.760864,-1.261606,107.385386,5735871.108699,619972.287067,-107.385386,30U,-0.043258,-0.206529,-0.001889,0.041209,0.002631,4.462764
1447410535132983,1447410535134126,1143,INS_SOLUTION_GOOD,51.760864,-1.261605,107.379481,5735871.125471,619972.333465,-107.379481,30U,-0.039420,-0.190525,-0.001731,0.041144,0.002656,4.461209
1447410535257983,1447410535253896,-4087,INS_SOLUTION_GOOD,51.760864,-1.261605,107.379603,5735871.120368,619972.311318,-107.379603,30U,-0.038434,-0.184307,0.000528,0.041100,0.002756,4.460794
1447410535632987,1447410535633877,890,INS_SOLUTION_GOOD,51.760864,-1.261607,107.380404,5735871.100795,619972.230077,-107.380404,30U,-0.055437,-0.258367,-0.004256,0.040659,0.003003,4.459212
1447410535695488,1447410535693856,-1632,INS_SOLUTION_GOOD,51.760864,-1.261607,107.380678,5735871.097004,619972.214288,-107.380678,30U,-0.058655,-0.270540,-0.004817,0.040586,0.002968,4.458872
1447410536070489,1447410536074078,3589,INS_SOLUTION_GOOD,51.760864,-1.261608,107.382876,5735871.070445,619972.107771,-107.382876,30U,-0.063634,-0.282140,-0.005933,0.040119,0.002562,4.457010
1447410536132992,1447410536134094,1102,INS_SOLUTION_GOOD,51.760864,-1.261607,107.417108,5735871.111384,619972.171075,-107.417108,30U,-0.062522,-0.277795,-0.003214,0.040049,0.002487,4.456841
1447410536195492,1447410536194160,-1332,INS_SOLUTION_GOOD,51.760864,-1.261608,107.417283,5735871.107240,619972.154502,-107.417283,30U,-0.062470,-0.278088,-0.003118,0.039988,0.002443,4.456551
1447410536632994,1447410536633938,944,INS_SOLUTION_GOOD,51.760864,-1.261609,107.419353,5735871.076553,619972.031905,-107.419353,30U,-0.062692,-0.275373,-0.006622,0.039634,0.001742,4.454415
1447410536695497,1447410536693778,-1719,INS_SOLUTION_GOOD,51.760864,-1.261610,107.419746,5735871.072437,619972.015597,-107.419746,30U,-0.061613,-0.271097,-0.006691,0.039608,0.001638,4.454167
1447410536757998,1447410536753843,-4155,INS_SOLUTION_GOOD,51.760864,-1.261610,107.420166,5735871.068426,619971.999617,-107.420166,30U,-0.059360,-0.264222,-0.007089,0.039574,0.001517,4.453944
1447410537070502,1447410537073887,3385,INS_SOLUTION_GOOD,51.760864,-1.261611,107.422526,5735871.050091,619971.924896,-107.422526,30U,-0.043462,-0.197456,-0.007732,0.039336,0.000982,4.452808
1447410537133003,1447410537133952,949,INS_SOLUTION_GOOD,51.760864,-1.261610,107.438241,5735871.036204,619971.964330,-107.438241,30U,-0.037864,-0.177014,-0.009046,0.039295,0.000889,4.452146
